npdes_id,frs_id,city,state,zip,watershed_huc12,latitude,longitude,facility_type,major_minor_facility,cso_outfall_count,median_household_income,poverty_rate,white_alone
AK0023213,110010680423,JUNEAU,AK,99801-7701,190103010606,58.286844,-134.382646,POTW,M,3,88390,7.7,68
CA0079111,110009542192,SACRAMENTO,CA,95822,180201630701,38.52324,-121.524678,POTW,M,6,62335,16.6,46.3
CA0037664,110043091301,SAN FRANCISCO,CA,94124-1601,180500041001,37.740278000000004,-122.390278,POTW,M,36,112449,10.3,46.4
CT0101010,110000759518,BRIDGEPORT,CT,06607-1628,11000060303,41.171486,-73.174556,POTW,M,47,46662,21.8,40.4
CT0100251,110010052904,HARTFORD,CT,06114-2101,10802050505,41.731389,-72.656389,POTW,M,38,36278,28.1,31.3
CT0100366,110001730770,NEW HAVEN,CT,06512-1813,11000040208,41.282563,-72.902505,POTW,M,24,69905,11.7,73.3
CT0100412,110033215660,NORWICH,CT,6360,11000030103,41.526191,-72.084583,POTW,M,16,57052,13.1,68.7
DC0021199,110029030144,WASHINGTON,DC,20032-5212,20700100301,38.813724,-77.027199,POTW,M,54,86420,16.2,41.3
DE0020320,110006523770,WILMINGTON,DE,19809,20402040000,39.72954,-75.504334,POTW,M,40,45032,26,35.6
GA0036854,110009140116,ALBANY,GA,0,31300080102,31.564389,-84.145222,POTW,N,8,36615,30.8,22.1
GA0038644,110020834533,ATLANTA,GA,30305,31300011204,33.800057,-84.39657,POTW,N,4,59948,20.8,40.9
GA0036838,110010039804,COLUMBUS,GA,31902-1600,31300030104,32.445889,-84.982028,POTW,N,2,46408,20.7,43.3
IA0043079,110005759465,BURLINGTON,IA,52601,70801041502,40.79864,-91.09842,POTW,M,12,47540,20.7,87.4
IA0035947,110001123203,CLINTON,IA,52732,70801010204,41.864194,-90.177472,POTW,M,10,51688,13.1,93.6
IA0044130,110011869246,DES MOINES,IA,50317-1346,71000081503,41.57364,-93.55782,POTW,M,1,53525,16.1,75.8
IA0027219,110002040666,FORT MADISON,IA,52627-4248,70801041705,40.628528,-91.304389,POTW,M,9,42694,15.9,93.7
IA0042609,110043869016,KEOKUK,IA,52632,70801041806,40.389278,-91.381833,POTW,M,9,39779,21.5,88.9
IA0020842,110010036825,LAKE CITY,IA,51449,71000060605,42.271142,-94.756301,POTW,N,1,46853,19,96.3
IA0023434,110000789479,MUSCATINE,IA,527610000,70801010701,41.407499,-91.071913,POTW,M,5,58453,9.6,90.4
IA0058611,110001362034,OTTUMWA,IA,52501-3508,71000090709,41.005472,-92.401528,POTW,M,10,41722,16.6,83.2
IA0021059,110009360609,SPENCER,IA,51301,102300030804,43.137778,-95.144167,POTW,M,4,46545,12.1,95.5
IA0047961,110010033089,WAPELLO,IA,526530000,70802091104,41.17402,-91.17779,POTW,N,2,66429,8.2,91.2
IL0027367,110018293746,ADDISON,IL,60101-4059,71200040404,41.920908,-87.975131,POTW,M,1,67337,12.4,68.5
IL0027464,110000759625,ALTON,IL,62002-2048,71100090304,38.884948,-90.134744,POTW,M,6,40211,26.6,70
ILM580006,110014449392,ARLINGTON HEIGHTS,IL,60005-1403,71200040505,42.08171,-87.98048,NON-POTW,N,1,96340,4,84.2
IL0048518,110006769327,AURORA,IL,60505-3302,71200070106,41.756477,-88.314698,NON-POTW,N,16,71749,11.4,59.5
IL0025135,110000880681,BEARDSTOWN,IL,62618-1408,71300031102,40.0107,-90.4407,POTW,M,1,40750,24.3,80.1
IL0021873,110000877668,BELLEVILLE,IL,62220-2105,71402040602,38.51261,-89.98423,POTW,M,15,48099,14.1,67.9
IL0072001,110006767926,BLOOMINGTON,IL,61701-5217,71300090701,40.47703,-88.9927,NON-POTW,N,15,67507,12.6,77.7
ILM580031,110014449711,BLUE ISLAND,IL,60406-2331,71200030403,41.655993,-87.682577,NON-POTW,N,5,48398,17.7,48.5
ILM580032,110014449720,BROOKFIELD,IL,60513-1688,71200040404,41.82251,-87.84276,NON-POTW,N,6,82435,7.1,84.8
IL0033120,110009987461,BUREAU JUNCTION,IL,61315-0140,71300010703,41.286667,-89.363333,POTW,N,1,53750,16.9,99.6
ILM580018,110014449542,BURNHAM,IL,60633-2081,71200030407,41.63175,-87.556037,NON-POTW,N,3,46394,17.1,30.3
IL0023825,110001104037,CAIRO,IL,62914,51402060704,37.0183,-89.1781,POTW,M,3,26439,34,29.4
ILM580025,110014449631,CALUMET CITY,IL,60409-4115,71200030407,41.61553,-87.529988,NON-POTW,N,7,44456,18,22.8
ILM580016,110014449524,CALUMET PARK,IL,60827-5819,71200030407,41.668381,-87.653766,NON-POTW,N,1,48092,17.3,9.5
IL0027839,110018343050,CANTON,IL,61520,71300051301,40.5461,-90.0436,POTW,M,2,44299,19.4,88.3
IL0022675,110010022475,CARLINVILLE,IL,62626-1966,71300120109,39.268,-89.877,POTW,M,1,43693,23.3,91.4
IL0035084,110018324295,CASEY,IL,62420,51201121003,39.299579,-87.99192,POTW,N,1,43869,10.5,97.2
IL0045012,110005853932,CHICAGO,IL,60602-1202,71200030107,41.88383,-87.63245,NON-POTW,N,244,58247,18.4,50
IL0028053,110018265642,CICERO,IL,60804-4112,71200040705,41.82159,-87.77285,POTW,M,15,49367,16.2,34.1
IL0028231,110009735386,COWDEN,IL,62422,71402011103,39.2433,-88.8583,POTW,N,1,36250,22.7,95.6
IL0028321,110000578544,DECATUR,IL,62522-1842,71300060801,39.84004,-89.00085,POTW,M,4,42701,22.1,71.2
ILM580026,110014449659,DES PLAINES,IL,60016-4498,71200040505,42.042135,-87.888738,NON-POTW,N,3,69760,8.5,77.6
ILM580011,110018343256,DIXMOOR,IL,60426,71200030405,41.62625,-87.657216,NON-POTW,N,1,49668,20,40.1
IL0026450,110000736534,DIXON,IL,61021,70900050606,41.83587,-89.51025,POTW,M,4,47171,14.5,83.9
ILM580017,110015317744,DOLTON,IL,60419-1029,71200030407,41.640175,-87.609945,NON-POTW,N,3,46614,22.3,4.8
IL0020877,110018172109,EARLVILLE,IL,60518,71200070504,41.583056,-88.92,POTW,N,1,54301,9.3,97.3
IL0033472,110009987522,EAST ST LOUIS,IL,62201,71401010403,38.611667,-90.181667,NON-POTW,N,7,24343,33.4,2
IL0028622,110000720275,EFFINGHAM,IL,62401,51201140203,39.10938,-88.53276,POTW,M,3,47582,15.6,94.4
IL0070505,110003052320,ELGIN,IL,60120-5555,71200061206,42.03957,-88.284303,NON-POTW,N,12,69041,11.3,61.8
ILM580002,110000548694,EVANSTON,IL,60201-2452,40400020502,42.061667,-87.675556,NON-POTW,N,15,78904,13.3,66.6
IL0021601,110009989218,FAIRBURY,IL,61739-0228,71300020205,40.7469,-88.5149,POTW,N,11,54833,12.9,97.1
IL0022462,110009735368,FARMER CITY,IL,61842,71300090105,40.23707,-88.64988,POTW,N,2,58400,15.6,95.6
ILM580019,110014449551,FOREST PARK,IL,60130,71200040506,41.87466,-87.81425,NON-POTW,N,2,62664,9.7,57.9
ILM580029,110039417878,FRANKLIN PARK,IL,60131-2763,71200040506,41.93684,-87.86383,NON-POTW,N,4,63971,9.3,77.9
IL0023141,110006645078,GALESBURG,IL,61401,70801040801,40.9401,-90.4222,POTW,M,38,36547,21.4,78.4
IL0022322,110009989021,GEORGETOWN,IL,61846,51201081101,39.9792,-87.6267,POTW,N,1,46455,16.1,93.5
IL0023281,110006770208,GIBSON CITY,IL,60936,71300060104,40.4569,-88.3835,POTW,N,1,44973,16.4,97.4
IL0072389,110015661586,GOLF,IL,60029,71200030103,42.058611,-87.787778,POTW,N,1,237750,1,92.5
IL0050717,110009985846,GRANT PARK,IL,60940,71200011402,41.2313,-87.645,POTW,N,2,60000,11.2,93.9
IL0022331,110006770253,GRANVILLE,IL,61326-9333,71300010804,41.2609,-89.2281,POTW,N,4,60536,9.7,96.7
IL0021423,110013765568,HARTFORD,IL,62048-1246,71100090403,38.832742,-90.098775,NON-POTW,N,1,54563,14.2,99.2
ILM580020,110014449560,HARVEY,IL,60426-3305,71200030405,41.611369,-87.64458,NON-POTW,N,7,30306,32.8,21.5
IL0023388,110006770226,HAVANA,IL,62644,71300031002,40.288,-90.0715,POTW,N,2,40417,17.3,98.1
IL0066818,110018330386,HINSDALE,IL,60521-3489,71200040701,41.803665,-87.928921,NON-POTW,N,4,203368,2.2,84.8
IL0021661,110006645096,JACKSONVILLE,IL,62650,71300110402,39.6886,-90.2089,POTW,M,2,43976,16.5,84.2
IL0022519,110009689756,JOLIET,IL,60436-2744,71200040603,41.507092,-88.090627,POTW,M,9,70509,10.9,66.4
ILM580008,110005802916,LA GRANGE PARK,IL,60525,71200040404,41.822335,-87.873757,NON-POTW,N,6,105783,4.6,89.8
ILM580009,110014449454,LAGRANGE,IL,60525-2487,71200040404,41.813783,-87.869587,NON-POTW,N,3,82292,4.1,91.2
ILM580027,110014449668,LANSING,IL,60438,71200030203,41.56475,-87.54417,NON-POTW,N,1,53940,15.5,48.3
IL0029424,110000731673,LASALLE,IL,61301,71200050802,41.3239,-88.705,POTW,M,3,49792,19.6,89.6
IL0029467,110000873314,LAWRENCEVILLE,IL,62439,51201121504,38.7215,-87.6735,POTW,M,4,40438,25.4,93.2
IL0021563,110009989209,LE ROY,IL,61752,71300090202,40.33829,-88.7596,POTW,N,1,73950,14.1,99.5
IL0039551,110006769531,LEMONT,IL,60439,71200040705,41.6725,-88.004167,NON-POTW,N,3,99724,4.9,95.1
IL0029564,110000731691,LINCOLN,IL,62656-3063,71300090511,40.139306,-89.373997,POTW,M,2,48931,12.8,90.9
ILM580034,110014449757,LINCOLNWOOD,IL,60712-2606,71200030104,42.00661,-87.7328,NON-POTW,N,2,95030,6.2,63.4
IL0020621,110025186732,LITCHFIELD,IL,62056,71402030106,39.174242,-89.63748,POTW,M,1,50368,18.2,96.8
IL0022471,110009694349,LOMBARD,IL,60148,71200040803,41.876667,-88.035,POTW,N,2,82461,6.3,77.2
ILM580004,110014451306,LYONS,IL,60534-1216,71200040706,41.82015,-87.81572,NON-POTW,N,3,60168,11.8,78.8
ILM580028,110014449677,MARKHAM,IL,60426,71200030405,41.59724,-87.66315,NON-POTW,N,1,43011,19,14.5
IL0021059,110000731441,MARSEILLES,IL,61341,71200050803,41.329632,-88.722196,POTW,M,1,58750,15.3,96.8
IL0068365,110009983438,MARSHALL,IL,62441,51201110804,39.4067,-87.6883,POTW,N,2,45703,18.1,98.6
IL0029815,110009988004,MASON CITY,IL,62664,71300090803,40.1683,-89.685,POTW,N,1,39485,22,99.3
IL0029831,110006520880,MATTOON,IL,61938,51201120603,39.4752,-88.3594,POTW,M,4,39852,22.2,96.6
ILM580022,110014449597,MAYWOOD,IL,60153,71200040506,41.889404999999996,-87.839276,NON-POTW,N,8,50176,15.9,18.2
ILM580003,110014451280,MELROSE PARK,IL,60160-3635,71200040403,41.891838,-87.861444,NON-POTW,N,1,50870,17.2,58.1
IL0029874,110000731726,METROPOLIS,IL,62960-1869,51402060701,37.15367,-88.73889,POTW,M,1,35855,24.4,89.5
IL0023272,110009988905,MILFORD,IL,60953,71200020707,40.6233,-87.6867,POTW,N,4,46786,12.7,92.8
IL0037818,110009987005,MINONK,IL,61760,NA,40.9127,-89.0342,POTW,N,1,54932,8.4,98.6
IL0021253,110009009232,MONMOUTH,IL,61462,70801040801,40.923351,-90.636844,POTW,M,6,44037,16.4,83.7
IL0021113,110018338262,MORRIS,IL,60450,71200050601,41.363611,-88.426667,NON-POTW,M,5,63562,10.8,92.6
IL0030015,110039921369,MORTON,IL,61550,71300040801,40.5711,-89.4592,POTW,M,2,77214,4.6,95.4
ILM580005,110014451315,MORTON GROVE,IL,60053-2902,71200030105,42.03817,-87.77966,NON-POTW,N,2,85360,7.1,60.1
ILM580035,110014449775,NILES,IL,60714-3229,71200030105,42.025548,-87.801278,NON-POTW,N,8,64772,9.2,72.5
ILM580030,110014449702,NORTH RIVERSIDE,IL,60546-1584,71200040506,41.84562,-87.82297,NON-POTW,N,2,59340,5.8,73.5
IL0024996,110010022242,OGLESBY,IL,61348,71300020906,41.2982,-89.0548,POTW,N,7,60508,8.2,92.8
IL0020184,110009989469,OREGON,IL,61061,70900050408,42.00578,-89.32806,POTW,N,3,51875,14.5,96.5
IL0020818,110028019542,OSWEGO,IL,60543,71200070109,41.715639,-88.352871,POTW,M,1,102110,1.5,82
IL0030384,110001104126,OTTAWA,IL,61350,71300010201,41.33958,-88.84774,POTW,M,14,51288,17.1,89.8
ILM580014,110014449506,PARK RIDGE,IL,60068-4182,71200040505,42.008636,-87.830369,NON-POTW,N,4,111642,3.8,90.3
IL0034495,110000759643,PEKIN,IL,61554-4050,71300030304,40.56435,-89.658624,POTW,M,4,50973,14.9,95.1
IL0037800,110018287655,PEORIA,IL,61602-1217,71300011705,40.69273,-89.59264,NON-POTW,N,16,51771,19.7,60.1
IL0030660,110000561035,PERU,IL,61354,71300010804,41.32635,-89.11426,POTW,M,22,51321,10.3,95.3
IL0072834,110015723092,PHOENIX,IL,60426-2351,71200030405,41.61248,-87.63589,NON-POTW,N,1,36906,22.1,14.9
IL0030457,110000873369,PONTIAC,IL,61764,71300020603,40.877222,-88.646111,POTW,M,5,45285,18.4,86.4
ILM580037,110006769620,POSEN,IL,60469-1344,71200030404,41.626315,-87.680291,NON-POTW,N,1,42370,22.9,67.2
IL0043061,110006679040,PROPHETSTOWN,IL,61277,70900050804,41.6756,-89.9194,POTW,N,2,49152,10.2,96.2
IL0030503,110000704113,QUINCY,IL,62305-8956,71100040301,39.901389,-91.416667,POTW,M,6,46189,15.2,90
ILM580024,110014449622,RIVER FOREST,IL,60305-1726,71200040506,41.88684,-87.81955,NON-POTW,N,2,129928,3.6,85.2
ILM580021,110014449579,RIVER GROVE,IL,60171-1612,71200040506,41.927248,-87.835688,NON-POTW,N,6,59814,10.2,83.4
ILM580007,110014449418,RIVERDALE,IL,60827-2328,71200030405,41.638828,-87.641514,NON-POTW,N,4,35711,26.3,7
ILM580015,110014449515,RIVERSIDE,IL,60546-2278,71200040706,41.826632,-87.818937,NON-POTW,N,4,111657,4.6,87.4
IL0030783,110018321920,ROCK ISLAND,IL,61201,70801010406,41.500139,-90.597167,POTW,M,6,54858,14,80.2
ILM580013,110018141045,SCHILLER PARK,IL,60176-1984,71200040506,41.95467,-87.86489,NON-POTW,N,1,54099,15.9,79.2
IL0028088,110001289882,SKOKIE,IL,60076-4013,71200030104,42.020168,-87.717003,POTW,M,12,73046,9.4,57.1
ILM580010,110014449463,SOUTH HOLLAND,IL,60473-2156,71200030405,41.600582,-87.61001,NON-POTW,N,5,63170,11.3,13.6
IL0031216,110000877917,SPRING VALLEY,IL,61362,71300010802,41.324158,-89.199888,POTW,M,9,50814,13.2,85.5
IL0021989,110000554819,SPRINGFIELD,IL,62707-8480,71300080403,39.843784,-89.644818,POTW,M,10,54648,18.6,72.9
ILM580023,110014449604,STICKNEY,IL,60402-4048,71200040705,41.821428,-87.786476,NON-POTW,N,1,65257,8.1,67.9
IL0022004,110018173439,STREATOR,IL,61364,71300020805,41.128333,-88.85,POTW,M,16,39736,21,91.2
ILM580033,110014449748,SUMMIT,IL,60501-1419,71200040705,41.784538,-87.80409,NON-POTW,N,4,47377,17.3,61.6
IL0031356,110000880459,TAYLORVILLE,IL,62568-7867,71300070501,39.56013,-89.3337,POTW,M,2,39979,15.5,95.6
IL0033618,110009987540,VILLA PARK,IL,60181,71200040404,41.881667,-87.96,POTW,N,4,77739,8.5,84.6
IL0022161,110018202121,WATSEKA,IL,60970,71200021001,40.781909,-87.736462,POTW,M,6,39281,14.2,95.9
IL0021792,110009989254,WENONA,IL,61377,71300010901,41.057224,-89.058889,POTW,N,1,44444,17.4,97.9
IL0045039,110009986649,WESTERN SPRINGS,IL,60558,71200040404,41.825,-87.895,NON-POTW,N,4,174760,3.9,96.5
ILM580012,110014449481,WILMETTE,IL,60091,71200030104,42.07058,-87.68278,NON-POTW,N,1,164681,3.1,83.1
IL0031852,110001104117,WOOD RIVER,IL,62095,71100090403,38.854718,-90.10334,POTW,M,1,46860,21,92.4
IN0025232,110009978809,AKRON,IN,46910,51201060407,41.0325,-86.033944,POTW,N,3,55221,23.2,74.2
IN0020044,110000731904,ALEXANDRIA,IN,46001,51202010405,40.26312,-85.70462,POTW,M,3,55330,25.3,98.3
IN0032476,110006645434,ANDERSON,IN,46011,51202010310,40.112694,-85.717389,POTW,M,17,37038,23.8,78
IN0021296,110000866689,ANGOLA,IN,46703,40500011002,41.627417,-84.982389,POTW,M,3,47878,10.6,92.5
IN0020222,110009738962,ATTICA,IN,47918,51201080603,40.290806,-87.255472,POTW,N,2,49167,15.9,96.9
IN0020672,110000568065,AUBURN,IN,46706-3503,41000030604,41.34877,-85.06132,POTW,M,1,50180,12.3,98.2
IN0021369,110006766767,BERNE,IN,46711,41000040402,40.667972,-84.946917,POTW,N,3,45185,16.3,92.5
IN0022411,110000544260,BLUFFTON,IN,467142015,51201010802,40.748139,-85.173139,POTW,M,1,47593,12.8,95.6
IN0022420,110010758359,BOONVILLE,IN,47601,51402011101,38.047778,-87.290111,POTW,M,2,43060,12.1,94.2
IN0021245,110006645489,BROWNSBURG,IN,46112,51202011302,39.838611,-86.406389,POTW,M,2,78877,3.5,89
IN0022462,110003127642,BUTLER,IN,46721,41000030502,41.430683,-84.86303,POTW,M,1,57344,17,95.3
IN0022535,110006766552,CENTERVILLE,IN,47330,50800030303,39.825606,-85.005271,POTW,N,1,47045,17.4,94.6
IN0022560,110028082036,CHESTERFIELD,IN,46017,51202010308,40.11345,-85.59313,POTW,N,1,44476,14.6,97.7
IN0022578,110000732002,CHESTERTON,IN,46304,40400010403,41.619,-87.064,POTW,M,1,73977,8.6,91.8
IN0022608,110005973937,CLINTON,IN,47842-2420,51201081607,39.654,-87.397778,POTW,M,6,54286,12.5,91.6
IN0022624,110005973946,COLUMBIA CITY,IN,46725-1916,51201040104,41.15736,-85.475,POTW,M,12,47075,13.7,96
IN0032573,110000569590,COLUMBUS,IN,47201,51202050606,39.198056,-85.923611,POTW,M,3,63405,13.8,79.7
IN0032336,110000736703,CONNERSVILLE,IN,47331-1926,50800030404,39.643389,-85.132594,POTW,M,5,34201,26.8,94.6
IN0032964,110000732093,CRAWFORDSVILLE,IN,47933-1235,51201100604,40.047083,-86.900833,POTW,M,2,44077,17.2,92.2
IN0022683,110006766561,CROTHERSVILLE,IN,47229,51202070606,38.790417,-85.849,POTW,N,4,48958,11.8,98.7
IN0025763,110006645498,CROWN POINT,IN,46307,40400010502,41.435,-87.358444,POTW,M,5,76927,5.8,87.5
IN0039314,110006645513,DECATUR,IN,46733,41000040408,40.84813,-84.92868,POTW,M,4,45149,13.9,95.2
IN0022829,110006645531,EAST CHICAGO,IN,46312-3838,71200030407,41.61901,-87.48075,POTW,M,3,32839,32.3,23.9
IN0021652,110009975205,EATON,IN,47338-9434,51201030404,40.346382,-85.354331,POTW,N,2,42014,13.4,97.6
IN0025674,110000573237,ELKHART,IN,46516-1521,40500012202,41.676583,-86.003833,POTW,M,39,40750,21.9,76.4
IN0032719,110002041175,ELWOOD,IN,46036,51202010502,40.2679,-85.8499,POTW,M,15,41777,19.1,97.8
IN0033073,110003090315,EVANSVILLE,IN,47713,51402020401,37.9573,-87.573,POTW,M,8,40178,21.8,80.6
IN0021105,110006766678,FAIRMOUNT,IN,46928,51201030504,40.42266,-85.649314,POTW,N,16,44688,19.6,95.7
IN0020958,110006679905,FORTVILLE,IN,46040,51202010808,39.934,-85.8621,POTW,N,12,63785,3,93.1
IN0022934,110000576573,FRANKFORT,IN,46041,51201070305,40.298806,-86.506806,POTW,M,1,41120,17.8,87.1
IN0032191,110009390756,FT WAYNE,IN,46803-1413,41000050102,41.079167,-85.103889,POTW,M,31,49411,16,73.4
IN0022977,110009284540,GARY,IN,46406-1759,71200030406,41.606528,-87.384083,POTW,M,13,31936,30.6,15.3
IN0025755,110000732075,GOSHEN,IN,46528-2532,40500011904,41.59683,-85.85229,POTW,M,1,48626,15.9,87.3
IN0020133,110006545051,GREENSBURG,IN,47240,51202060301,39.326722,-85.486306,POTW,M,1,54099,9.7,94.9
IN0023060,110020660578,HAMMOND,IN,46320,71200030407,41.622194,-87.513083,POTW,M,20,46406,22.1,49.5
IN0021628,110006645611,HARTFORD CITY,IN,47348,51201030301,40.4354,-85.384,POTW,M,17,34850,15.9,98
IN0023132,110000759689,HUNTINGTON,IN,46750,51201011104,40.8735,-85.514194,POTW,M,15,43955,15.3,95.4
IN0023183,110011829129,INDIANAPOLIS,IN,46221-2009,51202011205,39.7269,-86.1929,POTW,M,133,47873,18,60.9
IN0023302,110000552786,JEFFERSONVILLE,IN,47130-7708,51401010904,38.286694,-85.74375,POTW,M,16,56223,10.2,80
IN0020656,110005973900,KENDALLVILLE,IN,46755-1469,40500011504,41.4471,-85.27158,POTW,M,1,43073,10.6,93.6
IN0032875,110000574496,KOKOMO,IN,46901-6121,51201070109,40.47635,-86.1507,POTW,M,30,45797,18.6,83.7
IN0025577,110000554276,LA PORTE,IN,46350-6745,71200010403,41.585492,-86.680344,POTW,M,1,41231,19.1,87
IN0032468,110003069660,LAFAYETTE,IN,47909-1002,51201080203,40.402917,-86.907039,POTW,M,15,46374,16.7,83.8
IN0023582,110001123828,LIGONIER,IN,46767,40500011802,41.466812,-85.59777,POTW,M,6,47730,8,93.5
IN0023604,110000732020,LOGANSPORT,IN,46947,51201050104,40.74764,-86.38768,POTW,M,16,37670,20.2,73.2
IN0023621,110000732039,LOWELL,IN,46356-9580,71200011306,41.264306,-87.4175,POTW,M,1,67148,4.9,93
IN0025666,110000570132,MADISON,IN,47250,51401010302,38.73758,-85.39569,POTW,M,7,49522,16.5,87.7
IN0025585,110000578866,MARION,IN,46952-2158,51201030601,40.5795,-85.6587,POTW,M,9,32977,25.7,78.7
IN0023752,110000732048,MICHIGAN CITY,IN,46360,40400010105,41.716762,-86.884247,POTW,M,2,40631,24.6,61.8
IN0020770,110040094260,MIDDLETOWN,IN,47356,51202010803,40.052336,-85.537326,POTW,N,3,51581,15.3,96.7
IN0025640,110010455364,MISHAWAKA,IN,46544,40500012205,41.661056,-86.192417,POTW,M,19,43248,15.7,83.1
IN0020176,110003137837,MONTICELLO,IN,47960,51201061304,40.736,-86.755917,POTW,M,5,43182,10.9,87.1
IN0020117,110009975492,MONTPELIER,IN,47359,51201020301,40.5508,-84.8961,POTW,N,4,39313,20,89.9
IN0035696,110002082022,MOUNT VERNON,IN,47620,51402020605,37.924083,-87.910639,POTW,M,3,52031,17.5,90.1
IN0025631,110000565022,MUNCIE,IN,47304-4710,51202010305,40.185139,-85.440194,POTW,M,25,33944,31,83.1
IN0021466,110000731986,"NAPPANEE",IN,46550,40500011706,41.446028,-85.98575,POTW,M,13,55125,8.4,92.5
IN0023914,110005973964,NEW CASTLE,IN,47362-1226,51202040103,39.913377,-85.394362,POTW,M,8,38545,22.5,95.1
IN0020346,110009738971,NEW HAVEN,IN,46774,41000050102,41.080472,-85.007694,POTW,N,4,51306,8.8,94.3
IN0020168,110006645719,NOBLESVILLE,IN,46060-3254,51202010705,40.038035,-86.020438,POTW,M,7,82218,6.5,89.5
IN0020877,110009975456,NORTH JUDSON,IN,46366-1060,71200010604,41.223083,-86.77575,POTW,N,2,48750,18.8,98.5
IN0020362,110000731931,NORTH MANCHESTER,IN,46962,51201040407,41.003434,-85.774881,POTW,M,8,52319,11.5,92.2
IN0020451,110000759661,NORTH VERNON,IN,47265,51202070404,39.003728,-85.614227,POTW,M,2,49178,14.9,93.8
IN0021342,110012139300,OXFORD,IN,47971,51201080407,40.512611,-87.229111,POTW,N,1,49659,10.3,99.5
IN0024023,110009974974,PAOLI,IN,47454,51202081302,38.590694,-86.490611,POTW,N,8,37449,17.6,97
IN0032328,110006367074,PERU,IN,46970,51201011602,40.745194,-86.072194,POTW,M,16,39267,22.6,87.4
IN0021202,110000731977,PLAINFIELD,IN,46168,51202011306,39.691194,-86.395194,POTW,M,5,61046,9.1,81.7
IN0020991,110000736650,PLYMOUTH,IN,46563-3021,71200010502,41.3325,-86.322222,POTW,M,10,37610,24.7,87.9
IN0020095,110006645728,PORTLAND,IN,47371-8228,51201020102,40.4166,-84.9816,POTW,M,16,38281,15.5,93.5
IN0024406,110009979149,REDKEY,IN,47373,51201030205,40.344944,-85.153889,POTW,N,6,34046,21.2,96.6
IN0024414,110006645746,RENSSELAER,IN,47978,71200020305,40.923722,-87.175778,POTW,M,17,48162,11.7,93.7
IN0025615,110003070836,RICHMOND,IN,47374,50800030707,39.806955,-84.908443,POTW,M,6,39724,20.3,83.5
IN0020001,110009738855,RIDGEVILLE,IN,47380,51201030203,40.286556,-85.023194,POTW,N,3,37625,23.7,96.5
IN0021067,110009975296,ROCKPORT,IN,47635,51402010805,37.889167,-87.046389,POTW,N,1,41357,22.2,91.6
IN0020907,110006679898,ROSSVILLE,IN,46065,51201070204,40.42456,-86.59495,POTW,N,2,51935,10.3,98.1
IN0020125,110006766918,ROYAL CENTER,IN,46978,51201060803,40.86127,-86.50876,POTW,N,1,52574,10.4,97.4
IN0021270,110000759670,RUSHVILLE,IN,46173,51202050403,39.60455,-85.45377,POTW,M,2,48648,16.2,94
IN0024473,110006523155,SEYMOUR,IN,47274,51202060502,38.95583,-85.9313,POTW,M,1,44944,20,82.2
IN0024520,110000578116,SOUTH BEND,IN,46628,40500012207,41.7167,-86.27,POTW,M,44,40265,23.6,61.7
IN0020567,110009975367,SOUTH WHITLEY,IN,46787,51201040401,41.0799,-85.6288,POTW,N,2,46111,19.2,93.2
IN0032972,110000761710,SPEEDWAY,IN,46222-3251,51202011110,39.77161,-86.23328,POTW,M,2,42188,19.3,62.7
IN0024554,110006367056,SULLIVAN,IN,47882,51201111509,39.098827,-87.405713,POTW,M,5,34402,15.8,97.5
IN0024562,110011979403,SUMMITVILLE,IN,46070,51202010403,40.321139,-85.664833,POTW,N,3,50677,18.6,96
IN0021016,110000731968,TELL CITY,IN,47586,51402010703,37.957278,-86.774667,POTW,M,5,44809,15.4,94.7
IN0025607,110000716244,TERRE HAUTE,IN,47802,51201110605,39.428917,-87.431861,POTW,M,10,36406,26.4,82.2
IN0021474,110002045377,TIPTON,IN,46072,51202010605,40.282939,-86.02698,POTW,M,7,52538,11.1,94.5
IN0024660,110002354844,VALPARAISO,IN,46385-4530,40400010302,41.467,-87.076611,POTW,M,1,59533,12.2,91.4
IN0024741,110000732057,WABASH,IN,46992,51201011405,40.79179,-85.82506,POTW,M,8,44973,15.8,96.7
IN0024775,110009979229,WAKARUSA,IN,46573,40500012102,41.543083,-86.040472,POTW,N,6,65673,5.9,93.8
IN0024805,110000571015,WARSAW,IN,46580-2501,51201060204,41.237944,-85.868972,POTW,M,1,55982,12.5,85.5
IN0025658,110000759698,WASHINGTON,IN,47501-3483,51202020903,38.653056,-87.198889,POTW,M,5,41824,17.7,89.2
IN0020711,110009975429,WATERLOO,IN,46793,41000030602,41.43025,-85.01233,POTW,N,1,50536,15.3,97.7
IN0024821,110011998561,WEST LAFAYETTE,IN,479064613,51201080203,40.417224,-86.907424,POTW,M,5,34650,38.5,68
KS0039128,110006367083,ATCHISON,KS,66002-2424,102400110301,39.532358,-95.114635,NON-POTW,M,8,46465,18.2,86.6
KS0038563,110017592292,KANSAS CITY,KS,661181127,102701040607,39.112198,-94.610567,POTW,M,66,45665,19.8,56.9
KS0042722,110000574708,TOPEKA,KS,66616-1327,102701020903,39.07155,-95.64308,POTW,M,6,47999,14.4,78.4
KY0022373,110000732244,ASHLAND,KY,41101,50901030101,38.474722,-82.623611,POTW,M,8,40917,24.5,93.3
KY0035467,110006654147,CATLETTSBURG,KY,41129,50702040406,38.405833,-82.596944,POTW,N,5,28145,33.5,90.2
KY0021466,110000543662,ERLANGER,KY,41017-4407,50902030202,39.059,-84.6172,POTW,M,71,64460,9.4,89.4
KY0022861,110000732299,FRANKFORT,KY,40601,51002051501,38.218056,-84.875,POTW,M,16,50211,16.3,75.1
KY0026093,110006751997,HARLAN,KY,40831,51301010203,36.84636,-83.35426,POTW,M,1,24432,43.8,91.2
KY0020711,110000732235,HENDERSON,KY,42420,51402020401,37.818333,-87.623056,POTW,M,15,39887,22.7,83.2
KY0022411,110000759714,LOUISVILLE,KY,40211-2407,51401010904,38.232534,-85.830088,POTW,M,115,44806,15.9,69.9
KY0026115,110009939077,LOYALL,KY,40854,51301010203,36.84636,-83.35426,POTW,N,6,24205,39.1,98.2
KY0020257,110000761104,MAYSVILLE,KY,41056,50902010605,38.687222,-83.786667,POTW,M,11,35102,23.4,86.1
KY0021440,110006644854,MORGANFIELD,KY,42437,51402030201,37.67557,-87.83243,POTW,M,2,38228,14.1,79
KY0020095,110039998214,OWENSBORO,KY,42301,51402011202,37.790278,-87.140278,POTW,M,8,43369,21.7,86.4
KY0022799,110009957671,PADUCAH,KY,42001,51402060102,37.09754,-88.61633,POTW,M,11,39266,21.6,73.4
KY0025291,110006644872,PIKEVILLE,KY,41501,50702030202,37.491815,-82.539725,POTW,M,2,32281,29.2,93.8
KY0024058,110006752273,PINEVILLE,KY,40977,51301010303,36.76769,-83.7069,POTW,N,3,19063,38,94.9
KY0027413,110000732315,PRESTONSBURG,KY,41653,50702030501,37.690556,-82.777778,POTW,M,1,26563,44,90.2
KY0021512,110009939503,VANCEBURG,KY,41179,50902010210,38.608333,-83.321389,POTW,N,1,17197,44.1,96.8
KY0022926,110006654619,WORTHINGTON,KY,41183,50901030105,38.54747,-82.71777,POTW,N,3,51500,13.9,97.4
MA0101192,110000915458,BOSTON,MA,2210,10900010704,42.345,-71.059444,NON-POTW,M,37,71115,18.9,52.8
MA0101974,110009917402,CAMBRIDGE,MA,2139,10900010704,42.365097,-71.104497,NON-POTW,M,11,103154,12.7,66.1
MA0101877,110013765620,CHELSEA,MA,2150,10900010402,42.390097,-71.037828,NON-POTW,M,4,56802,18.1,48.4
MA0101508,110000732725,CHICOPEE,MA,01013-1041,10802040402,42.153676,-72.621998,POTW,M,33,53225,13.8,85.8
MA0100382,110000732592,FALL RIVER,MA,2724,10900040905,41.676769,-71.193935,POTW,M,19,43503,19.7,80.6
MA0100986,110006618810,FITCHBURG,MA,1420,10700040102,42.547034,-71.752572,POTW,M,41,57207,15.7,80.3
MA0100625,110024340444,GLOUCESTER,MA,1930,10900010301,42.611338,-70.680381,POTW,M,5,72574,10,93.6
MA0101621,110000732752,HAVERHILL,MA,01835-7646,10700061402,42.75941,-71.061607,POTW,M,21,69426,12.5,80.3
MA0101630,110000541735,HOLYOKE,MA,01040-5433,10802010702,42.191041,-72.612574,POTW,M,15,40769,29.3,87.5
MA0100633,110024329289,LOWELL,MA,01850-2288,10700061207,42.648424,-71.288948,POTW,M,8,56878,19,61
MA0101338,110008993143,LUDLOW,MA,1056,10802040402,42.1622,-72.48615,NON-POTW,N,1,73458,8.7,92.4
MA0100552,110000563328,LYNN,MA,01905-3037,10900010402,42.45293,-70.956287,POTW,M,4,56181,16.6,48.6
MA0100137,110000732574,MONTAGUE,MA,01351-9522,10802010602,42.580725,-72.57295,POTW,M,2,54430,11.2,90.4
MA0100781,110009023332,NEW BEDFORD,MA,2744,10900020401,41.595387,-70.905558,POTW,M,35,46321,20.3,63.5
MA0100447,110000736847,NORTH ANDOVER,MA,01845-1649,10700061402,42.714543,-71.128793,POTW,M,5,108070,5.6,85.8
MA0101168,110010402135,PALMER (THREE RIVERS),MA,1080,10802040207,42.185311,-72.362228,POTW,M,21,64651,11.3,89.8
MA0101982,110028287823,SOMERVILLE,MA,2145,NA,42.38,-70.091667,NON-POTW,M,2,97328,11.5,75.8
MA0103331,110009023476,SPRINGFIELD,MA,1101,10802010702,42.102389,-72.593306,NON-POTW,N,25,39432,26.9,63.3
MA0100897,110000732654,TAUNTON,MA,02780-5004,10900040804,41.87435,-71.09723,POTW,M,1,62865,14.2,79.9
MA0102997,110009917297,WORCESTER,MA,1610,10900030102,42.248819,-71.80412,NON-POTW,N,1,48139,20,69.2
MD0021636,110003515866,CAMBRIDGE,MD,21613,20600050502,38.564167,-76.057222,POTW,M,7,43120,21.3,42.4
MD0067407,110019881118,CUMBERLAND,MD,21502-,20700020302,39.64409,-78.77912,POTW,N,20,36145,23.5,89.9
MD0067423,110006643560,FROSTBURG,MD,21532,20700020301,39.655556,-78.930556,POTW,N,14,42699,23.2,80.4
MD0067547,110008494931,LAVALE,MD,21504,NA,39.644592,-78.819802,POTW,N,3,67382,6.8,94
MD0021571,110002064042,SALISBURY,MD,21801-8488,20801100303,38.356944,-75.625,POTW,M,2,41905,24.7,49.1
MD0067384,110011128617,WESTERNPORT,MD,21562,20700020302,39.485278,-79.041667,NON-POTW,N,2,42014,18.7,99.2
ME0100005,110009913077,AUBURN,ME,4212,10400020803,44.097778,-70.232222,POTW,N,6,49719,11.3,91
ME0100013,110000916251,AUGUSTA,ME,4330,10300032409,44.301944,-69.778333,POTW,M,24,43796,18.8,94.3
ME0100781,110000732985,BANGOR,ME,04401-6810,10200051003,44.779444,-68.783056,POTW,M,12,46625,18.9,90.6
ME0101214,110006618339,BAR HARBOR,ME,4609,10500021407,44.380278,-68.205833,POTW,M,4,56897,10.1,82.3
ME0100021,110009913086,BATH,ME,04530-2875,10500030603,43.92725,-69.81136,POTW,M,4,48252,13.8,96.7
ME0101532,110039672048,BELFAST,ME,4915,10500021803,44.428214,-69.004889,POTW,M,2,62857,13.5,93.7
ME0100048,110002045288,BIDDEFORD,ME,04005-2755,10600021105,43.491667,-70.447222,POTW,M,11,53120,11.7,91.3
ME0100072,110000732958,BREWER,ME,04412-2417,10200051003,44.774167,-68.781944,POTW,M,7,52174,12.5,97.2
ME0100111,110009025991,BUCKSPORT,ME,4416,10200051009,44.568889,-68.771667,POTW,N,2,29922,24.1,99
ME0100129,110006618400,CALAIS,ME,4619,10500010806,45.188407,-67.271709,POTW,M,1,32601,16.5,98.2
ME0102121,110011126986,CAPE ELIZABETH,ME,4107,10600010607,43.58492,-70.24447,POTW,N,1,123116,4.1,96.9
ME0100153,110055042216,CORINNA,ME,4928,10300031806,44.915063,-69.256435,NON-POTW,N,1,41875,9.3,98.2
ME0101702,110006618589,GARDINER,ME,4345,10300032409,44.193341,-69.759639,POTW,M,2,49627,17.5,96.1
ME0100994,110036399867,LEWISTON,ME,4240,10400021005,44.090361,-70.208778,POTW,N,31,44523,18.1,86.8
ME0100307,110002047026,LISBON,ME,4250,10400021003,43.994976,-70.048292,POTW,M,1,57568,8.5,95.2
ME0100323,110002046438,MACHIAS,ME,4654,10500020603,44.71962,-67.45253,POTW,M,2,20565,35.2,92.9
ME0101681,110006744005,MADAWASKA,ME,4756,10100090601,47.353293,-68.300793,POTW,N,2,34053,12.8,99.7
ME0100391,110000732976,MECHANIC FALLS,ME,4256,10400020910,44.11057,-70.38552,POTW,M,1,56264,5.2,92.2
ME0100439,110006649010,MILO,ME,4463,10200040205,45.229167,-68.976944,POTW,N,3,33750,29.7,97.1
ME0100471,110002043119,OLD TOWN,ME,4468,10200050603,44.926667,-68.642222,POTW,M,3,42679,22.4,92.3
ME0100498,110055618577,ORONO,ME,4473,10200050603,44.878144,-68.668097,POTW,M,1,47528,33.3,89.5
ME0102075,110000568877,PORTLAND,ME,4103,10600010607,43.673684,-70.255584,POTW,M,34,60467,14.6,84.6
MEU508074,110055030461,RANDOLPH,ME,4346,10300032409,44.231051,-69.755245,NA,N,1,50286,19.3,95.6
ME0100595,110002052206,ROCKLAND,ME,04841-3417,10500021909,44.105,-69.1075,POTW,M,4,44156,13.7,96.4
ME0101117,110020625858,SACO,ME,4072,10600021105,43.49,-70.44,POTW,M,5,70517,7.3,95.8
ME0100617,110006618758,SANFORD,ME,4073,10600030202,43.411667,-70.723611,POTW,M,2,52513,13.9,93.2
ME0100625,110002050752,SKOWHEGAN,ME,4976,10300031501,44.76812,-69.709,POTW,M,9,44540,18.9,93.4
ME0100951,110008435498,SOUTH PARIS,ME,4281,10400020904,44.21301,-70.517668,POTW,M,1,39309,25.2,93.5
ME0100633,110028276595,SOUTH PORTLAND,ME,04106-2834,10600010402,43.639638,-70.25626,POTW,M,6,69290,8.8,89.8
ME0100854,110000732994,WATERVILLE,ME,04901-6354,10300032404,44.52704,-69.653771,POTW,M,3,38862,21.2,94
ME0100846,110039692053,WESTBROOK,ME,04092-3141,10600010306,43.694004,-70.349815,POTW,M,5,59460,16.3,89.5
ME0100749,110018930497,WINTERPORT,ME,4496,10200051007,44.634611,-68.845639,POTW,N,1,62455,14.3,96
ME0100765,110002052215,YARMOUTH,ME,4096,10600010206,43.78654,-70.170334,POTW,M,1,89984,3.5,94
MI0022152,110009026767,ADRIAN,MI,49221,41000020206,41.917222,-84.015278,POTW,M,1,36236,23,89
MI0022284,110000544796,BAY CITY,MI,48708-5489,40802060204,43.608565,-83.871454,POTW,M,5,37893,25.2,91.8
MI0037427,110006740429,BEVERLY HILLS,MI,48025,40900040403,42.522966,-83.243285,POTW,N,1,127419,1.9,85.1
MI0025534,110006740633,BIRMINGHAM,MI,48009,40900040403,42.542229,-83.227802,POTW,N,2,122804,5.3,90.1
MI0043982,110009032616,CALUMET,MI,49913,40201030401,47.25,-88.5074,POTW,N,2,21389,30.6,91
MI0021083,110006806910,CROSWELL,MI,48422,40900010114,43.263264,-82.619645,POTW,N,1,41887,20,89.5
MI0048879,110042379397,CRYSTAL FALLS,MI,49920,40301060408,46.070833,-88.325,POTW,N,2,45486,17.2,95.3
MI0025542,110006740642,DEARBORN,MI,48126,40900040407,42.3125,-83.2125,POTW,N,19,53670,28.2,90.5
MI0051462,110009900241,DEARBORN HEIGHTS,MI,48127-3271,40900040303,42.33198,-83.27755,POTW,N,8,49750,18.6,86.2
MI0022802,110000555435,DETROIT,MI,48209-2676,40900040407,42.280556,-83.118889,POTW,M,81,30894,35,14.7
MI0022853,110000733341,EAST LANSING,MI,48823-5241,40500040508,42.72208,-84.51163,POTW,M,1,39867,41,75.9
MI0022918,110006740688,ESSEXVILLE,MI,48732,40801030101,43.613496,-83.844418,POTW,N,1,51793,13.7,97.4
MI0023001,110009900704,GLADWIN,MI,48624-1937,40802010204,43.97806,-84.49424,POTW,N,1,38258,22.6,94.5
MI0026069,110000534235,GRAND RAPIDS,MI,49503,40500060512,42.948,-85.700472,POTW,M,11,50103,20.4,67.2
MI0026077,110040046811,GROSSE POINTE FARMS,MI,48236-3161,40900020200,42.40629,-82.89237,POTW,N,1,143711,2.5,96
MI0051471,110006650098,INKSTER,MI,48141,40900040303,42.29718,-83.31023,POTW,N,6,32014,33.5,17.9
MI0023205,110006645407,KINGSFORD,MI,49802,40301080704,45.785556,-88.083333,POTW,M,1,43974,19.1,88.5
MI0023400,110001934505,LANSING,MI,48917-1843,40500040704,42.75232,-84.57933,POTW,M,30,41674,24.6,61
MI0026115,110006740456,MADISON HEIGHTS,MI,48071,40900030202,42.524167,-83.086667,POTW,N,1,53439,13.6,80.8
MI0020362,110000759885,MANISTEE,MI,49660,40601030705,44.236991,-86.306686,POTW,M,4,44878,13.1,91.1
MI0023515,110006645416,MANISTIQUE,MI,49854,40601060604,45.952,-86.25439,POTW,M,1,31834,23.7,86.7
MI0020656,110000737016,MARYSVILLE,MI,48040-1572,40900010307,42.913781,-82.490333,POTW,M,1,62438,8.2,97.3
MI0023647,110000549489,MOUNT CLEMENS,MI,48043-5806,40900030402,42.60189,-82.86351,POTW,M,1,43018,20.1,70.3
MI0023701,110000733396,NILES,MI,49120-2332,40500012602,41.839361,-86.265083,POTW,M,8,34486,27.3,84.8
MI0020214,110009032518,NORWAY,MI,49870,40301080706,45.778889,-87.905833,POTW,N,1,43287,9,95.3
MI0023833,110000737043,PORT HURON,MI,48060-4004,40900010214,42.97533,-82.42003,POTW,M,10,38808,24.4,82.6
MI0051829,110006740045,REDFORD,MI,48239-2432,40900040406,42.37561,-83.29509,POTW,N,9,57216,15.2,52
MI0028819,NOID39021,RIVER ROUGE,MI,NA,NA,42.1642,-83.0753,POTW,N,1,25517,42.2,41.3
MI0025577,110000751936,SAGINAW,MI,48601-1268,40802060201,43.463738,-83.909493,POTW,M,8,29582,34.8,46.5
MI0025585,110009900688,SAINT CLAIR SHORES,MI,48080,40900020200,42.465856,-82.886365,POTW,N,3,60805,7.6,92
MI0026735,110010125239,SAINT JOSEPH,MI,49085,40500012608,42.108137,-86.481216,POTW,N,5,62374,7,83.9
MI0024058,110000733430,Sault Ste Marie,MI,49783,40700010101,46.491389,-84.315278,POTW,M,5,38341,22.2,76.1
MI0020591,110000759910,ST CLAIR,MI,48079,40900010306,42.81994,-82.4906,POTW,M,1,71845,7.8,95.6
MI0021440,110009900731,WAKEFIELD,MI,49968,40201010203,46.49905,-89.92772,POTW,N,1,36056,22.9,97.1
MI0036072,110009032563,WYANDOTTE,MI,48192-7307,40900040503,42.188333,-83.158333,POTW,N,2,54462,13.5,95.7
MO0050580,110039819667,CAPE GIRARDEAU,MO,63703,71401050503,37.301556,-89.5185,POTW,M,1,45733,23,81.2
MO0024929,110006367190,KANSAS CITY,MO,64105-1138,103001010301,39.109,-94.598,POTW,M,223,54194,16.1,60.9
MO0023221,110001123702,MACON,MO,63552-4121,71100060203,39.73375,-92.462694,POTW,M,3,36991,15.1,87.5
MO0117960,110000733948,MOBERLY,MO,65270,71100060302,39.41925,-92.414722,POTW,M,4,37021,21.2,84.4
MO0023043,110000866572,SAINT JOSEPH,MO,64504,102400110103,39.731333,-94.864556,POTW,M,15,48197,18.7,86.1
MO0025178,110001452204,SAINT LOUIS,MO,63147-2913,71401010401,38.67361,-90.19497,POTW,M,209,43896,21.8,46.5
MO0023027,110000733671,SEDALIA,MO,65301,103001030406,38.728861,-93.240861,POTW,M,1,39804,19.4,89.1
NE0133680,110012804787,OMAHA,NE,68183,NA,41.27685,-95.92526,NON-POTW,N,29,60092,13.4,77.5
NE0021121,110008961506,PLATTSMOUTH,NE,68048,102400010106,41.01116,-95.87965,POTW,M,1,50390,9.4,96.2
NH0100013,110004101409,BERLIN,NH,3570,10400010607,44.460021,-71.184218,NON-POTW,M,1,39130,18.5,89.1
NH0100871,110002320863,EXETER,NH,3833,10600030806,42.995832,-70.946075,POTW,M,1,69575,6.2,94.4
NH0100366,110002320783,LEBANON,NH,03784-1661,10801060106,43.636805,-72.320541,POTW,M,5,67698,11.3,89.3
NH0100447,110002320809,MANCHESTER,NH,03103-6826,10700060803,42.941196,-71.457289,POTW,M,19,60711,14.1,84.8
NH0100170,110007686110,"NASHUA",NH,3060,10700061206,42.748493,-71.445079,POTW,M,8,74995,9.3,82.6
NH0100234,110004100623,PORTSMOUTH,NH,3801,10600031001,43.073145,-70.74033,POTW,M,2,83923,6.7,90
NJ0109240,110014922209,BAYONNE,NJ,07002-3878,20301040203,40.678714,-74.116531,POTW,N,28,63947,13.5,62.6
NJ0108812,110009836874,CAMDEN,NJ,81015120,20402020405,39.955113,-75.128232,POTW,N,33,27015,36.4,23.5
NJ0108804,110006705752,CLIFFSIDE PARK,NJ,07010-2914,20301010405,40.82132,-73.98794,POTW,N,1,72633,9.8,70.6
NJ0117846,110006704673,EAST NEWARK,NJ,07029-2793,20301030805,40.751212,-74.164589,POTW,N,1,63750,13.3,54.2
NJ0034517,110009838426,Fort Lee,NJ,7020,20301010405,40.84293,-73.96972,POTW,N,2,83767,9.6,49.9
NJ0020591,NOID54106,EDGEWATER BORO,NJ,NA,20301010405,40.48534,-73.58596,POTW,M,1,127221,6.9,51.4
NJ0108782,110009721916,ELIZABETH,NJ,07201-2408,20301040203,40.662881,-74.214034,POTW,N,35,48407,17.6,41.5
NJ0108847,110009721925,GLOUCESTER,NJ,8030,20402020405,39.897335,-75.112119,POTW,N,7,59394,10.7,82.4
NJ0108715,110009836829,GUTTENBERG,NJ,7093,20301030906,40.791489,-74.08292,POTW,N,1,62450,14.4,62.7
NJ0108766,110009836865,HACKENSACK,NJ,07601-4202,20301030905,40.88606,-74.04446,POTW,N,2,70090,13.4,49.9
NJ0108871,110009836883,HARRISON,NJ,7029,20301030805,40.747045,-74.165145,POTW,N,7,69604,16.4,48.5
NJ0026085,NOID42495,HOBOKEN,NJ,NA,20301010405,40.45251,-74.01559,POTW,M,10,147620,8.7,80.7
NJ0108723,110006834186,JERSEY CITY,NJ,07305-4823,20301040205,40.706491,-74.099864,POTW,N,27,70752,17.2,35.9
NJ0111244,110006705592,KEARNY,NJ,07032-2604,20301030805,40.7644,-74.14841,NON-POTW,N,10,70702,10.3,66
NJ0020028,110017411772,LITTLE FERRY,NJ,7643,20301030906,40.836889,-74.033222,POTW,M,1,66098,10.3,62.9
NJ0108758,110009836856,NEWARK,NJ,07102-2660,20301030805,40.740657,-74.164589,POTW,N,29,35199,27.4,28.6
NJ0108898,110009721934,NORTH BERGEN,NJ,7047,20301030906,40.780657,-74.038752,POTW,N,12,63908,12.7,67.9
NJ0108880,110009836892,PATERSON,NJ,7505,20301030803,40.93732,-74.155699,POTW,N,31,41360,26.6,30.3
NJ0109118,110009836936,RIDGEFIELD PARK,NJ,07660-2515,20301030905,40.85804,-74.02481,POTW,N,6,86923,6.7,73.4
NJ0020141,110000715888,SAYREVILLE,NJ,08871-0159,20301040403,40.481468,-74.252757,POTW,M,1,81883,7,65.9
NJ0020923,110000760329,TRENTON,NJ,8611,20402010404,40.190833,-74.753333,POTW,M,1,35402,28.7,40.9
NJ0025321,110000734509,WEST NEW YORK,NJ,07093-5103,20301010405,40.787823,-73.999611,POTW,M,2,56436,19.9,61.3
NY0026867,110007155210,ALBANY,NY,12201,20200060305,42.630306,-73.759667,POTW,M,13,45825,22.9,55
NY0020290,110002344703,AMSTERDAM,NY,12010,20200041104,42.921,-74.1665,POTW,M,3,37457,27.5,72.7
NY0026158,110000915172,ASTORIA,NY,11105,20301020105,40.7784,-73.8946,POTW,M,46,68666,12.2,38.3
NY0021903,110018932333,AUBURN,NY,13021-1701,41402011306,42.943944,-76.596083,POTW,M,9,44049,19,84
NY0024406,110000734947,BINGHAMTON,NY,13901,20501020810,42.09713,-75.91197,POTW,M,9,34487,32.6,73.4
NY0020494,110009829604,BOONVILLE,NY,13309,41501010302,43.488,-75.329694,POTW,N,2,40400,23.1,96.8
NY0026191,110013300472,BRONX,NY,10474,20301020105,40.803694,-73.885083,POTW,M,36,40088,28,22
NY0026212,110019834063,BROOKLYN,NY,11207-9100,20302020103,40.655,-73.88093,POTW,M,194,60231,20,43.7
NY0028410,110001568704,BUFFALO,NY,14213-1704,41201040601,42.920556,-78.904722,POTW,M,58,37354,30.1,47.1
NY0029807,110002345356,CANASTOTA,NY,13032-1072,41402020502,43.08152,-75.75477,POTW,M,1,56563,8,95.3
NY0020389,110006620754,CATSKILL,NY,12414,20200061101,42.212111,-73.853556,POTW,M,6,35515,35.5,69.9
NY0027545,110009828963,CLAYTON,NY,13624,41503010102,44.246389,-76.082556,POTW,N,2,52708,11.5,95.9
NY0031046,110009149670,COHOES,NY,120472897,20200041110,42.77462,-73.70009,POTW,N,16,55054,15.7,83.7
NY0026239,110001607280,COLLEGE POINT,NY,11356-1200,20301020105,40.797583,-73.841056,POTW,M,22,68666,12.2,38.3
NY0033545,110019244833,COXSACKIE,NY,12051,20200060407,42.349472,-73.792111,POTW,N,3,53345,10.5,98.4
NY0027961,110000724100,DUNKIRK,NY,14048,41201010202,42.5045,-79.326833,POTW,M,1,35146,25.1,85.9
NY0035742,110019364454,ELMIRA,NY,14901,20501050508,42.076682,-76.779493,POTW,M,11,36909,26.2,75.7
NY0183695,110009826457,FORT EDWARD,NY,12828,20200030506,43.261778,-73.582639,POTW,M,11,47951,10.3,98
NY0029050,110000761346,GLENS FALLS,NY,12801-3823,20200030506,43.304944,-73.623694,POTW,M,1,50071,15.8,92.4
NY0020117,110002344678,GOUVERNEUR,NY,13642,41503020802,44.331472,-75.486028,POTW,M,1,33571,22.5,93.9
NY0033031,110009828419,GREEN ISLAND,NY,12183-1117,20200031107,42.74197,-73.69213,POTW,N,3,55104,7.7,90.4
NY0022039,110019791484,HUDSON,NY,12534,20200061101,42.258831,-73.792885,POTW,M,10,39346,23,63.7
NY0026115,110019834946,JAMAICA,NY,11430-1508,20302020102,40.662306,-73.808667,POTW,M,6,68666,12.2,38.3
NY0023981,110006659972,JOHNSON CITY,NY,13790-2420,20501030201,42.11519,-75.95526,POTW,N,2,42299,20.3,75.7
NY0029351,110000735072,KINGSTON,NY,12401-6001,20200070605,41.92043,-73.97863,POTW,M,7,51299,19.2,69.5
NY0024481,110004309187,LEWISTON,NY,14092,41201040605,43.17405,-79.04443,POTW,N,2,49888,7.6,89.9
NY0022403,110018925528,LITTLE FALLS,NY,13365,20200040709,43.037944,-74.843306,POTW,M,3,42311,24,97.2
NY0027057,110000760515,LOCKPORT,NY,14094-1700,41300010703,43.18449,-78.71045,POTW,M,13,45018,16,85
NY0031194,110019349533,MASSENA,NY,13662-2222,41503040502,44.936778,-74.874528,POTW,M,9,44626,19.6,92.7
NY0021873,110002345178,MEDINA,NY,14103-1249,41300010405,43.231944,-78.390556,POTW,M,13,43779,16.7,86.6
NY0026875,110019445616,MENANDS,NY,12204-2752,20200060302,42.69,-73.724,POTW,M,1,70000,18.1,54.4
NY0026280,110000549372,NORTH TONAWANDA,NY,14120-6557,41201040604,43.04201,-78.88818,POTW,M,6,58211,8.8,95.7
NY0026247,110000719660,NEW YORK,NY,10031,20301010405,40.825583,-73.956861,POTW,M,50,63998,17.9,42.7
NY0026310,110002044412,NEWBURGH,NY,12550-6034,20200080503,41.494333,-74.004861,POTW,M,12,41769,25.4,41
NY0026336,110000541227,NIAGARA FALLS,NY,14303-1514,41201040605,43.086306,-79.069611,POTW,M,9,36346,28.2,68
NY0029831,110000709207,OGDENSBURG,NY,13669,41503010202,44.7055,-75.487972,POTW,M,17,41965,22.7,84.6
NY0029114,110019768296,OSWEGO,NY,13126,41401021004,43.469444,-76.498056,POTW,M,7,43258,26.7,92.4
NY0026018,110002345310,PLATTSBURGH,NY,12901-3052,41504081604,44.698611,-73.445667,POTW,M,14,49065,21.1,88.7
NY0020818,110006621423,POTSDAM,NY,13676,41503050703,44.679278,-74.994333,POTW,M,1,32282,26.5,83.2
NY0026255,110000576813,POUGHKEEPSIE,NY,12601-1757,20200080106,41.716056,-73.939917,POTW,M,6,43794,19.4,46.9
NY0026026,110010763815,RENSSELAER,NY,12144,20200060303,42.64286,-73.74307,POTW,N,8,55912,13.8,80.1
NY0028339,110000737481,ROCHESTER,NY,14617,41401010706,43.2311,-77.5849,POTW,M,6,35590,31.3,47.9
NY0026221,110008108001,ROCKAWAY PARK,NY,11694,20302020103,40.584472,-73.829944,POTW,M,18,84485,12.6,44.7
NY0020508,110010605103,SALAMANCA,NY,14779-1072,50100010804,42.16402,-78.74452,POTW,M,1,31934,27.6,69.3
NY0020516,110019060763,SCHENECTADY,NY,12308-1021,20200041108,42.840167,-73.918222,POTW,M,2,45438,19.4,56.5
NY0026174,110002041255,STATEN ISLAND,NY,10306,20301040404,40.548389,-74.11225,POTW,M,37,82783,9.1,74.5
NY0027081,110000760524,SYRACUSE,NY,13204-1123,41402011509,43.06279,-76.17581,POTW,M,62,38276,31,54.8
NY0036706,110008097353,TICONDEROGA,NY,12883-1354,41504080206,43.84879,-73.42433,POTW,M,2,48229,9.9,97.9
NY0099309,110009827367,TROY,NY,12182-4801,20200031106,42.7835,-73.652417,POTW,N,49,45728,24.4,68.1
NY0029939,110006621511,TUPPER LAKE,NY,12986,41503050409,44.230222,-74.481694,POTW,M,2,53202,10.9,92.5
NY0025780,110000555612,UTICA,NY,13502,20200040311,43.099583,-75.194778,POTW,M,82,37760,29.4,62.4
NY0024414,110006620745,VESTAL,NY,13850-3537,20501030201,42.098167,-75.966361,POTW,M,1,67910,15,81.6
NY0026131,110042069123,WARDS ISLAND,NY,10035,20301010405,40.787833,-73.919139,POTW,M,78,63998,17.9,42.7
NY0029173,110004331303,WATERFORD,NY,12188-2221,20200041110,42.787833,-73.684583,POTW,M,4,52457,11,88.9
NY0025984,110010583573,WATERTOWN,NY,13601-4813,41501011404,43.989472,-75.926361,POTW,M,17,40253,22.9,83.8
NY0030899,110009692467,WATERVLIET,NY,12189-2846,20200060302,42.707361,-73.704778,POTW,N,5,43803,18.7,75
NY0026689,110039562327,YONKERS,NY,10705,20301010404,40.918972,-73.910639,POTW,M,12,63849,14.9,52
OH0023833,110001625340,AKRON,OH,44313-4710,41100020405,41.157258,-81.565423,POTW,M,38,38739,23.5,59.9
OH0023884,110006195090,ANSONIA,OH,45303,50800010905,40.220168,-84.628705,POTW,N,2,50781,19.2,99.9
OH0020940,110006238231,ARCANUM,OH,45304,50800011302,39.98645,-84.55095,POTW,N,14,56750,9.3,96.6
OH0023981,110000737551,AVON LAKE,OH,44012,41100010603,41.49972,-82.05802,POTW,M,10,83018,5.1,95.1
OH0049999,110000762050,BELLAIRE,OH,43906-9521,50301061205,40.070764,-80.750599,POTW,M,47,30257,26.8,91.5
OH0020851,110015744989,BLUFFTON,OH,45817,41000080404,40.89766,-83.88745,POTW,M,2,74318,4.5,94.1
OH0024139,110002321005,BOWLING GREEN,OH,43402,41000100301,41.385022,-83.611078,POTW,M,1,37346,33,86.9
OH0020192,110009162841,BRADFORD,OH,45308,50800011204,40.138125,-84.42769,POTW,N,9,51895,10.6,98.5
OH0021491,110010577321,BREMEN,OH,43107,50302040401,39.7155,-82.6167,POTW,N,1,56917,12,95.7
OH0052922,110004722578,BUCYRUS,OH,44820,41000110403,40.79738,-82.99308,POTW,M,22,41314,13.2,96.9
OH0020559,110008579261,CALDWELL,OH,43724,50302010901,39.7478,-81.521,POTW,N,22,34625,18.4,96.6
OH0105457,110009661302,CINCINNATI,OH,45215-5222,50902030102,39.213058,-84.486267,NON-POTW,N,215,40640,26.3,50.7
OH0043991,110017611645,CLEVELAND,OH,44115-2504,41100030504,41.503374,-81.660014,POTW,N,126,30907,32.7,40
OH0024686,110002321023,CLYDE,OH,43410,41000110204,41.31545,-82.98541,POTW,M,3,53489,13.5,93.7
OH0024732,110000545456,COLUMBUS,OH,43223,50600012302,39.91296,-83.01746,POTW,M,31,53745,19.5,58.6
OH0024759,110009639766,COLUMBUS GROVE,OH,45830,41000070502,40.91913,-84.05659,POTW,N,4,54353,9.6,94.4
OH0020664,110002451935,CRESTLINE,OH,44827,41000110401,40.79554,-82.7504,POTW,M,1,40321,22,90.7
OH0024899,110000544082,DEFIANCE,OH,43512-8961,41000090201,41.289722,-84.318333,POTW,M,44,49628,15,85.1
OH0024929,110006645229,DELPHOS,OH,45833,41000070903,40.85241,-84.34956,POTW,M,6,50571,9.1,94.2
OH0020974,110006322247,DELTA,OH,43515,41000090302,41.56821,-84.003008,POTW,N,9,64031,7.9,91.7
OH0022471,110009823156,DESHLER,OH,43516,41000090505,41.20812,-83.89046,POTW,N,7,45272,18.5,91.9
OH0048321,110011016818,DUNKIRK,OH,45836-1065,41000080103,40.78945,-83.64345,POTW,N,6,36667,30.7,91.7
OH0025003,110009489213,ELYRIA,OH,44035-1752,41100010602,41.404167,-82.086944,POTW,M,27,44324,23.1,76.4
OH0031062,110009489561,EUCLID,OH,44123-1714,41100030502,41.613968,-81.529574,POTW,M,18,38242,21.8,34.3
OH0025127,110009823003,FAYETTE,OH,43521,41000060202,41.6826,-84.1931,POTW,N,15,46571,13.9,89.3
OH0025135,110000573727,FINDLAY,OH,45840-2557,41000080304,41.04809,-83.66843,POTW,M,18,51002,13.3,88.6
OH0025151,110006202732,FOREST,OH,45843,41000080104,40.799168,-83.505409,POTW,N,3,42434,11.1,98.7
OH0052744,110002321103,FOSTORIA,OH,44830-1350,41000100202,41.17456,-83.424,POTW,M,5,39688,27.2,89.3
OH0025291,110002345463,FREMONT,OH,43420-1950,41000111302,41.35739,-83.10408,POTW,M,13,41305,17.9,84.4
OH0025160,110008613875,FT RECOVERY,OH,45846,51201010102,40.417597,-84.774915,POTW,N,4,63077,11.6,98.9
OH0029122,110009822807,GIBSONBURG,OH,43431,41000100401,41.39182,-83.32591,POTW,N,3,50227,15.4,88.9
OH0025364,110002463986,GIRARD,OH,44420-2598,50301030705,41.15496,-80.70288,POTW,M,4,40543,17.1,92.6
OH0022578,110008604769,GREEN SPRINGS,OH,44836,41000111203,41.25987,-83.05606,POTW,N,1,56926,6.5,95.1
OH0020486,110010573566,GREENWICH,OH,44837,41000120103,41.03221,-82.52392,POTW,N,10,45156,14.7,98.7
OH0021105,110009152754,HAMLER,OH,43524,41000090102,41.2436,-84.0239,POTW,N,6,51726,5.3,91.9
OH0025771,110006329026,HICKSVILLE,OH,43526,41000050204,41.28825,-84.7604,POTW,M,5,61910,9.8,92.2
OH0025852,110002452051,IRONTON,OH,45638-1631,50901030105,38.54006,-82.69224,POTW,M,9,35666,22.4,93.7
OH0026018,110000737588,LAKEWOOD,OH,44107,41100010203,41.47908,-81.8249,POTW,M,9,53290,14,87.7
OH0026026,110000550458,LANCASTER,OH,43130-9401,50302040402,39.7091,-82.58537,POTW,M,31,43720,18.5,93.3
OH0020826,110006700285,LEIPSIC,OH,45856,41000090504,41.1043,-83.9769,POTW,N,1,42097,20.3,61.2
OH0026069,110000760659,LIMA,OH,45804-1808,41000070306,40.72298,-84.12747,POTW,M,19,35799,24.3,64.8
OH0126268,110009674254,LISBON,OH,44432-1302,50301010403,40.77249,-80.76723,POTW,N,9,29659,29.3,94.1
OH0024741,110000551251,LOCKBOURNE,OH,43137-9202,50600011603,39.81808,-82.99926,POTW,M,1,47500,26.7,100
OH0058971,110008595626,LUCKEY,OH,43443,41000100601,41.465167,-83.483139,POTW,N,4,70417,0.8,96.3
OH0094528,110008611760,MALTA,OH,43758,50400040808,39.649419,-81.861847,POTW,N,9,29219,28,73.3
OH0026352,110000562203,MARION,OH,43302-9576,50600010303,40.589722,-83.183889,POTW,M,3,38221,20.4,84.5
OH0026263,110006700098,MCCOMB,OH,45858,41000100101,41.11256,-83.79399,POTW,N,2,61250,3.7,89.3
OH0021466,110009642985,MCCONNELSVILLE,OH,43756-1264,50400040808,39.651193,-81.859039,POTW,N,11,29922,18.4,87.1
OH0058408,110008631347,METAMORA,OH,43540,41000010304,41.713231,-83.899439,POTW,N,4,52500,11.7,92.6
OH0026514,110009647052,MIDDLEPORT,OH,45760,50302020805,38.995331,-82.058506,POTW,N,13,31442,28.2,93.8
OH0026522,110000540834,MIDDLETOWN,OH,45044-7433,50800020706,39.4815,-84.4272,POTW,M,8,40347,25.2,81.9
OH0020451,110006700374,MILFORD,OH,45150,50902021305,39.16685,-84.28464,POTW,M,2,51385,9.9,94.6
OH0026565,110009655131,MINGO JUNCTION,OH,43938,50301011005,40.310413,-80.614997,POTW,N,6,54706,9.2,93.3
OH0021831,110006700203,MONTPELIER,OH,43543,41000030304,41.58706,-84.61115,POTW,N,3,54489,18.8,93
OH0020893,110015651034,"NAPOLEON",OH,43545,41000090206,41.394735,-84.11585,POTW,M,3,46509,16.3,90
OH0020613,110006276715,NEW BOSTON,OH,45662,50901030606,38.75259,-82.93508,POTW,N,2,22332,36.4,94.4
OH0026671,110000735376,NEWARK,OH,43055,50400060409,40.05073,-82.397,POTW,M,24,45039,18.3,91.8
OH0022110,110008581472,NEWTON FALLS,OH,44444-1459,50301030306,41.19234,-80.96664,POTW,M,25,41534,13.1,97.4
OH0020117,110012138677,NORTH BALTIMORE,OH,45872,41000100103,41.182733,-83.665936,POTW,N,2,56250,15.2,94.4
OH0052604,110002345622,NORWALK,OH,44857-8996,41000120605,41.2649,-82.61336,POTW,M,4,45752,16.9,94.9
OH0026841,110006285144,OAK HARBOR,OH,43449,41000100502,41.50758,-83.13689,POTW,N,9,43922,14.6,92.6
OH0021148,110006216068,PANDORA,OH,45877,41000080405,40.9464,-83.9583,POTW,N,7,61000,5,97.3
OH0020338,110010126791,PAULDING,OH,45879,41000071206,41.15783,-84.5492,POTW,N,2,42461,12.4,91.5
OH0021326,110009823174,PAYNE,OH,45880,41000071205,41.0854,-84.6996,POTW,N,2,44052,13.7,94.8
OH0021008,110000760588,PERRYSBURG,OH,43551,41000090903,41.56178,-83.63062,POTW,M,4,90633,3.8,90.3
OH0021725,110006700258,POMEROY,OH,45769,50302020805,39.0302,-82.0255,POTW,N,13,32857,34.8,92.3
OH0052876,110002345631,PORT CLINTON,OH,43452-1024,41000100502,41.51516,-82.94488,POTW,M,1,42045,17.7,91.1
OH0027197,110000552401,PORTSMOUTH,OH,45662,50901030606,38.730833,-82.974444,POTW,M,10,28840,36.5,88.5
OH0027332,110002321087,SANDUSKY,OH,44870-2149,41000110102,41.45135,-82.72492,POTW,M,15,38380,21.3,67.2
OH0027481,110000761364,SPRINGFIELD,OH,45506-1710,50800011805,39.9161,-83.84472,POTW,M,58,39332,23.1,74.9
OH0027511,110000735438,STEUBENVILLE,OH,43952,50301011109,40.3606,-80.6107,POTW,M,16,38600,24.6,78.8
OH0020524,110011017746,SWANTON,OH,43558,41000090701,41.519,-84.3049,POTW,N,9,64552,9.5,97.2
OH0052949,110000555952,TIFFIN,OH,44883-1124,41000111103,41.136944,-83.164722,POTW,M,30,41996,13.6,92
OH0027740,110000556577,TOLEDO,OH,43611-3042,41000010309,41.69289,-83.4828,POTW,M,33,37752,25.5,62.6
OH0020214,110013397476,TORONTO,OH,43964-1974,50301011106,40.449919,-80.608475,POTW,N,7,39858,19.5,96.3
OH0020001,110002320952,UPPER SANDUSKY,OH,43351-1394,41000110702,40.818957,-83.278928,POTW,M,1,46774,8.1,97.2
OH0027910,110006645176,VAN WERT,OH,45891,41000070803,40.888194,-84.594889,POTW,M,6,44318,18.3,95.3
OH0027952,110002464173,WAPAKONETA,OH,45895,41000070105,40.570472,-84.212194,POTW,M,3,57512,13.5,94.6
OH0023400,110009823575,WAUSEON,OH,43567,41000090402,41.544342,-84.125212,POTW,M,4,54774,8,87
OH0028118,110000735447,WILLARD,OH,44890,41000120404,41.067431,-82.586132,POTW,M,3,41696,15.8,91.4
OH0028177,110006211107,WOODSFIELD,OH,43793,50302010103,39.759445,-81.100763,POTW,N,5,30769,29.4,96.7
OH0020591,110020794461,WOODVILLE,OH,43469,41000100401,41.44903,-83.35957,POTW,N,17,67083,6.7,97.8
OH0028185,110000735456,WOOSTER,OH,44691-4617,50400030602,40.78581,-81.94932,POTW,M,3,47944,14.3,90
OH0028223,110000576494,YOUNGSTOWN,OH,44502-2026,50301030807,41.0917,-80.64189,POTW,M,101,28822,35.2,49.1
OH0028240,110000754657,ZANESVILLE,OH,43701-5953,50400040802,39.912776,-82.004166,POTW,M,19,30345,30.1,83.9
OR0027561,110006618179,ASTORIA,OR,97103-4524,170800060500,46.18837,-123.83181,POTW,M,38,48813,11.4,89.9
OR0026361,110016653450,CORVALLIS,OR,97330-6219,170900030609,44.5742,-123.2533,POTW,M,4,52942,25.6,81.6
OR0026905,110000576895,PORTLAND,OR,97203-2098,170900120201,45.5975,-122.719,POTW,M,42,71005,13.7,77.4
PA0024686,110010977979,ALLENPORT,PA,15412,50200050802,40.1,-79.844722,POTW,N,8,44922,11.1,100
PA0027014,110007751389,ALTOONA,PA,16602,20503020502,40.5258,-78.38416,POTW,M,1,41403,23.4,92.7
PAG066121,110017794065,ARNOLD,PA,15068-4498,50100090304,40.579206,-79.768054,NON-POTW,N,2,29487,30.7,64.6
PA0023558,110000735633,ASHLAND,PA,17921,20503010501,40.774256,-76.272447,POTW,M,9,37457,19.1,94.5
PAG066113,110010995414,ASPINWALL,PA,15215-3095,50100090308,40.49019,-79.90441,NON-POTW,N,3,84375,2.7,87.9
PA0022209,110017878652,BEDFORD,PA,15522,20503030104,40.0177,-78.485377,POTW,M,2,49844,12.5,93.5
PA0092355,110010216783,BELLE VERNON,PA,15012,50200050802,40.122017,-79.862269,POTW,N,16,28500,15.5,88.8
PA0023248,110006646852,BERWICK,PA,18603,20501071002,41.039422,-76.267817,POTW,M,4,40227,22.7,96
PA0026042,110000575155,BETHLEHEM,PA,18015-9528,20401060811,40.613667,-75.334934,POTW,M,3,55809,15.4,76.9
PA0021610,110010266194,BLAIRSVILLE,PA,15717-1120,50100071008,40.43984,-79.29107,POTW,N,16,45956,12.6,93.2
PAG066102,110010995922,BRADDOCK,PA,15104-1694,50200050808,40.40356,-79.86828,NON-POTW,N,9,21972,36.7,22.5
PA0020397,110010978601,BRIDGEPORT,PA,19405,20402031007,40.102331,-75.325461,POTW,N,6,62941,15.6,89.9
PAG066129,110010995557,BRIDGEVILLE,PA,15017-1599,50301010104,40.32507,-80.108111,NON-POTW,N,1,47917,10.5,92.4
PA0022306,110001059737,BROWNSVILLE,PA,154170000,50200050506,40.019519,-79.882547,POTW,N,4,31202,33.1,83.5
PA0038920,110010974856,BURNHAM,PA,17009,20503040702,40.640833,-77.558333,POTW,N,3,50846,7.6,98.6
PA0024341,110010977871,CANTON,PA,177240237,20501060301,41.651464,-76.846625,POTW,N,1,41083,19.8,98.5
PAG066126,110010995539,CARNEGIE,PA,15106,50301010107,40.411736,-80.090055,NON-POTW,N,1,52612,15.3,84.4
PA0026891,110001095289,CHARLEROI,PA,15022-1416,50200050803,40.133129,-79.890881,POTW,M,12,34866,24.3,85.8
PA0027103,110001219501,CHESTER,PA,19013-4508,20402020607,39.828617,-75.393105,POTW,M,26,32403,31.4,20.6
PA0026824,110001061467,CLAIRTON,PA,15025-2172,50200050806,40.303681,-79.882271,POTW,M,5,37282,22.5,60.3
PA0026310,110000915083,CLEARFIELD,PA,16830-2405,20502010408,41.025058,-78.40002,POTW,M,9,44563,19.8,98.5
PAG064802,110010995904,COAL TOWNSHIP,PA,178661900,20503010102,40.803947,-76.577848,NON-POTW,N,33,37352,21.6,81.8
PA0026476,110010794328,COALDALE,PA,18218-1015,20402030102,40.814811,-75.931868,POTW,M,6,36953,12.4,91.7
PA0026905,110009161236,CONNELLSVILLE,PA,15425-3857,50200060903,39.997742,-79.610372,POTW,M,16,35029,18,90.9
PAG066135,110017803714,CORAOPOLIS,PA,15108-1804,50301010307,40.51733,-80.16384,NON-POTW,N,6,43145,11.8,75.4
PA0028223,110000966802,CORRY,PA,16407-1993,50100011103,41.91938,-79.63995,POTW,M,3,40833,24.7,91.1
PA0027081,110010977746,DICKSON CITY,PA,18519,20501070103,41.44819,-75.63327,POTW,N,15,53167,9.9,95
PA0026158,110007797152,DONORA,PA,15033-1394,50200050803,40.16285,-79.868658,POTW,M,21,33620,25.5,77
PA0028401,110001061476,DRAVOSBURG,PA,15034-1222,50200050807,40.347410000000004,-79.89159,POTW,N,1,34667,10.2,95.4
PA0027022,110006802870,DUNCANSVILLE,PA,16635,20503020202,40.454378,-78.426264,POTW,M,1,50563,6.4,97.5
PA0026981,110010808689,DUQUESNE,PA,15110-1148,50200050808,40.37273,-79.8468,POTW,M,4,29844,39.2,29.3
PA0026361,110010784712,DURYEA,PA,18642-1255,20501070110,41.34869,-75.780194,POTW,M,26,60707,8.6,95.4
PAG066122,110010995502,EAST CONEMAUGH,PA,15909,50100070503,40.341741,-78.887246,NON-POTW,N,2,32059,19.2,90.4
PAG066120,110010995487,EAST PITTSBURGH,PA,15112,50200050704,40.392847,-79.83977,NON-POTW,N,3,30663,21.6,25.8
PAG062201,110010995888,EASTON,PA,18042,20401050603,40.693431,-75.205732,NON-POTW,N,2,51698,15.9,69.3
PA0022292,110000949895,EBENSBURG,PA,15931-3815,50100070501,40.489238,-78.717521,POTW,M,2,44556,8.9,99.6
PA0028436,110001063321,ELIZABETH,PA,15037-1763,50200050807,40.277114,-79.88303,POTW,M,6,40179,16.1,95.8
PA0026832,110007767050,ELLWOOD CITY,PA,16117,50301050409,40.855342,-80.310063,POTW,M,2,46250,11.1,97.6
PA0028631,110055045623,EMPORIUM,PA,15834,20502020207,41.506708,-78.229323,POTW,N,1,35151,23.5,94.7
PA0026301,110001139367,ERIE,PA,16507-2204,41201010406,42.140806,-80.074889,POTW,M,15,37894,26.2,72.7
PA0037711,110009161735,EVERETT,PA,15537,20503030504,40.01144,-78.37483,POTW,N,5,35388,19.4,95.8
PAG066130,110010995566,EXPORT,PA,15632,50200050701,40.418679,-79.630322,NON-POTW,N,5,44650,12.3,95.3
PA0027227,110010794391,FARRELL,PA,16121,50301020603,41.20089,-80.505349,POTW,M,4,30400,33.1,48.3
PA0020702,110010266489,FAYETTE CITY,PA,154380000,50200050802,40.103129,-79.842823,POTW,N,2,38125,16.3,96
PA0037044,110001117050,FORD CITY,PA,16226,50100061107,40.781175,-79.524767,POTW,M,3,37549,19.5,96.8
PA0026174,110000554098,FRANKLIN,PA,16323-1077,50100030907,41.37469,-79.81901,POTW,M,5,35000,10.8,96.4
PAG066131,110017793379,FREEDOM,PA,15042-1738,50301010309,40.686177,-80.25645,NON-POTW,N,3,46406,24.1,92.5
PA0024716,110010977997,FREELAND,PA,18224-1501,20401060302,41.027306,-75.893532,POTW,N,1,37973,18.9,90.1
PA0025755,110001063063,FREEPORT,PA,16229-1122,50100090304,40.67257,-79.68573,POTW,N,6,42250,12.1,96.7
PA0036820,110010975034,GALETON,PA,16922,20502050204,41.7364,-77.6341,POTW,N,4,35208,22.2,99.4
PA0028673,110010261554,GALLITZIN,PA,16641,20502010301,40.488958,-78.565295,POTW,N,6,44063,20.6,99.6
PA0039489,110028174268,GARRETT,PA,15542,50200060704,39.864247,-79.064193,POTW,N,2,43750,24.8,97.5
PA0021113,110006646521,GLASSPORT,PA,15045,50200050807,40.32767,-79.8925,POTW,M,5,40823,20.2,90.7
PA0027456,110000539668,GREENSBURG,PA,15601-2225,50200061101,40.268681,-79.557818,POTW,M,40,42058,18.8,90.3
PA0027197,110000532709,HARRISBURG,PA,17104-3145,20503051011,40.239078,-76.856111,POTW,M,60,39685,26.2,34.9
PA0026921,110009002649,HAZLETON,PA,182010651,20501070402,40.970556,-76.023889,POTW,M,14,40467,22.1,69
PA0043273,110010974525,HOLLIDAYSBURG,PA,16648-2468,20503020106,40.430073,-78.361124,POTW,M,4,49049,4.7,96.8
PAG066103,110000952504,HOMESTEAD,PA,151200000,50200050808,40.40133,-79.90361,NON-POTW,N,1,26220,29.1,35
PA0023469,110006646870,HONESDALE,PA,18431-1991,20401030601,41.57445,-75.2568,POTW,M,9,38606,28.7,96
PA0026191,110000762069,HUNTINGDON,PA,16652,20503020803,40.475907,-78.001114,POTW,M,6,44489,21.3,92.2
PA0027570,110006624340,IRWIN,PA,15642,50200050702,40.353292,-79.733039,POTW,M,3,49570,13.2,98.8
PAG066115,110017830383,JOHNSTOWN,PA,15905,50100070310,40.28944,-78.91491,NON-POTW,N,12,24561,38.4,75.4
PA0023175,110020690536,KANE,PA,16735,50100010903,41.6778,-78.8061,POTW,M,2,40363,19.8,97.7
PA0042234,110001062974,KITTANNING,PA,16201-1699,50100061107,40.81203,-79.51569,POTW,M,8,32730,23.6,97.8
PA0026743,110000571747,LANCASTER,PA,17603,20503061107,40.016877,-76.30532,POTW,M,5,45514,23.9,59.8
PA0026182,110007768406,LANSDALE,PA,19446,20402010202,40.255036,-75.286573,POTW,M,2,66794,7.1,75.8
PA0026069,110010793141,LATROBE,PA,15650,50100080106,40.322848,-79.380592,POTW,M,18,53502,8.7,97
PA0027626,110001059498,LEECHBURG,PA,15656,50100080205,40.6095,-79.5839,POTW,M,32,46298,14.4,95
PA0024589,110001061519,LEETSDALE,PA,15056-1303,50301010307,40.560345,-80.215893,POTW,N,6,55333,14.9,82.4
PA0070041,110006823214,MAHANOY CITY,PA,17948,20503010501,40.808421,-76.156327,POTW,M,1,32669,29.6,82.9
PA0021814,110039789477,MANSFIELD,PA,16933-9557,20501040906,41.8073,-77.0772,NON-POTW,M,3,34728,30.5,92.3
PA0021571,110000735615,MARYSVILLE,PA,17053-0016,20503051005,40.342028,-76.926778,POTW,M,3,61168,11.8,93.6
PAG066109,110010687131,MCDONALD,PA,15057,50301010106,40.370626,-80.227282,NON-POTW,N,20,45534,9.4,94.9
PAG066112,110010619198,MCKEES ROCKS,PA,15136-3521,50301010107,40.465588,-80.057249,NON-POTW,N,10,26259,31.3,55.5
PA0026913,110001062983,MCKEESPORT,PA,15132-3807,50200061203,40.353125,-79.871715,POTW,M,28,29094,31.4,58.9
PA0024481,110002478104,MEYERSDALE,PA,15552-1320,50200060701,39.814452,-79.025534,POTW,N,5,39696,22.9,97.7
PA0023701,110001107766,MIDLAND,PA,15059,50301010310,40.634509,-80.450621,POTW,M,1,44889,18.5,85.9
PAG066106,110022569601,MILLVALE,PA,15209-2256,50100090307,40.478402,-79.969775,NON-POTW,N,9,41060,14.1,86.9
PA0027693,110000940821,MINERSVILLE,PA,17954-1719,20402030203,40.6903,-76.25783,POTW,M,7,31100,19,97.5
PA0020125,110012508875,MONACA,PA,15061-1898,50301010309,40.6914,-80.2804,POTW,M,6,39974,10.4,90.1
PA0025950,110001117176,MONONGAHELA,PA,15063,50200050807,40.208404,-79.93866,POTW,M,1,48986,9.3,93.4
PAG062202,110009157624,MOOSIC,PA,18507,20501070108,41.35508,-75.735747,NON-POTW,N,3,55957,11.2,92
PA0024406,110010794248,MOUNT CARMEL,PA,17851,20503010101,40.787308,-76.450232,POTW,M,19,34628,16.5,97.9
PA0021148,110001100264,MOUNT PLEASANT,PA,15666,50200061001,40.1412,-79.5368,POTW,M,6,42988,15.5,94.9
PAG066127,110000948020,MUNHALL,PA,15120-2561,50200050808,40.39928,-79.9044,NON-POTW,N,4,47649,14.1,82.5
PA0027111,110000550476,NEW KENSINGTON,PA,15068-2004,50100090302,40.5509,-79.761437,POTW,M,6,42264,23,84.2
PA0021237,110000949680,NEWPORT,PA,17074-1533,20503041204,40.47736,-77.13132,POTW,N,1,46833,13.8,97
PA0027421,110010994059,NORRISTOWN,PA,19401,20402031007,40.110664,-75.337683,POTW,M,2,48414,19.5,40.5
PA0026204,110010128281,OIL CITY,PA,16301,50100030905,41.408392,-79.731442,POTW,M,16,39750,18,97.1
PA0027430,110010977666,JEANNETTE,PA,156750294,50200050702,40.32877,-79.64076,POTW,M,5,40750,22.2,80
PA0026689,110001076978,PHILADELPHIA,PA,19137-1418,20402020402,39.99141,-75.08503,POTW,M,175,45927,24.3,40.7
PAG066101,110010995913,PITCAIRN,PA,15140-1298,50200050704,40.400902,-79.781713,NON-POTW,N,1,32864,21.8,66.9
PA0025984,110001085076,PITTSBURGH,PA,15233,50301010303,40.4745,-80.04083,POTW,M,230,48711,20.5,66.8
PA0021407,110001063312,POINT MARION,PA,15474,50200030309,39.731468,-79.905891,POTW,N,6,53313,18.7,91.3
PA0043885,110010974142,POTTSVILLE CITY,PA,17901-1745,20402030203,40.677868,-76.188832,POTW,M,56,42083,16.5,94.2
PA0020346,110006646442,PUNXSUTAWNEY,PA,15767,50100060706,40.941452,-79.001589,POTW,M,4,32221,25.7,96.9
PAG066105,110000961656,RANKIN,PA,15104-1008,50200050808,40.41016,-79.86785,NON-POTW,N,2,34091,29.9,15.6
PA0028207,110010977504,REYNOLDSVILLE,PA,15851,50100060306,41.09274,-78.89431,POTW,N,1,35614,21.3,95.1
PAG066132,110009157553,ROCHESTER,PA,15074-1400,50301010309,40.698244,-80.269663,NON-POTW,N,3,30120,29.8,74.1
PA0024490,110040096277,ROCKWOOD,PA,15557,50200060706,39.911745,-79.154474,POTW,N,6,38882,15.6,97.7
PA0037818,110039828915,SALTSBURG,PA,15681,50100071008,40.482289,-79.450319,POTW,N,6,43676,17.9,97.7
PA0026581,110010794337,SCOTTDALE,PA,15683,50200061002,40.082852,-79.596428,POTW,M,8,52425,11.5,97.7
PA0026492,110007772507,SCRANTON,PA,18505,20501070109,41.387024,-75.692691,POTW,M,78,40608,23.2,83.1
PA0020681,110010264221,SEWICKLEY,PA,15143,50301010307,40.538956,-80.191448,POTW,N,4,63475,6.1,85.5
PAG064801,110010995897,SHAMOKIN,PA,17872-0917,20503010102,40.788863,-76.562792,NON-POTW,N,38,28737,33.2,92.7
PAG066125,110010995520,SHARPSBURG,PA,15215,50100090308,40.492846,-79.935607,NON-POTW,N,6,36360,23.1,87.5
PA0070386,110010794462,SHENANDOAH,PA,17976-1708,20503010501,40.82334,-76.20222,POTW,M,13,28427,35.9,82.7
PA0021521,110039807992,SMETHPORT,PA,16749,50100010105,41.8148,-78.4286,POTW,N,1,55625,13.6,98.9
PA0025224,110010978059,ST CLAIR,PA,17970,20402030201,40.707034,-76.177442,POTW,N,7,40884,17.4,99
PAG063501,110013341696,STEELTON,PA,0,20503051011,40.212222,-76.810611,NON-POTW,N,1,38836,26.3,41
PA0026557,110000940723,SUNBURY,PA,17801-3427,20503010103,40.852585,-76.791355,POTW,M,5,34644,18.9,93.3
PA0023736,110010978148,SUSQUEHANNA DEPOT,PA,188471641,20501011305,41.9482,-75.6048,POTW,N,2,36058,24.9,97.7
PA0027006,110010128254,TAMAQUA,PA,18252,20402030102,40.79755,-75.964528,POTW,M,16,38921,15.3,96.2
PA0027391,110000762087,TARENTUM,PA,15084-1841,50100090304,40.60202,-79.75287,POTW,M,19,33970,23.1,84.7
PA0027090,110000540022,THROOP,PA,18512-3339,20501070106,41.4494,-75.63191,POTW,M,20,46317,9.2,90.6
PA0036650,110010689683,TITUSVILLE,PA,16354,50100030604,41.62749,-79.67337,POTW,M,4,35495,24.2,96.4
PAG066118,110017794412,TURTLE CREEK,PA,15145,50200050703,40.404849,-79.824954,NON-POTW,N,12,33292,30.4,75.3
PAG066117,110017806329,UNIONTOWN,PA,15401,50200050601,39.90208,-79.72419,NON-POTW,N,28,35150,26,72.2
PA0027120,110006521086,WARREN,PA,16365,50100011209,41.83892,-79.15312,POTW,M,4,42939,12.6,97.6
PA0020613,110001122687,WAYNESBURG,PA,15370-1817,50200050305,39.896741,-80.164507,POTW,N,2,39100,21.6,92.1
PA0021687,110000926954,WELLSBORO,PA,16901-1549,20502050301,41.743128,-77.289975,POTW,M,2,46875,8.8,95.9
PA0022331,110010263400,WEST ELIZABETH,PA,150880000,50200050807,40.275209,-79.872492,POTW,N,1,45000,18.9,92.7
PAG066123,110009157535,WEST HOMESTEAD,PA,15120-1030,50200050808,40.40142,-79.91762,NON-POTW,N,2,53106,17.3,80.4
PA0027651,110001063679,WEST NEWTON,PA,15089-1397,50200061201,40.2099,-79.7685,POTW,N,13,40878,17.2,93.8
PA0026107,110001060672,WILKES BARRE,PA,18711-1003,20501070205,41.2336,-75.93668,POTW,M,54,37902,26.6,69.8
PA0027057,110006625107,WILLIAMSPORT,PA,17701-5340,20502060604,41.244722,-76.989444,POTW,M,4,39990,25.4,80.1
PAG066104,110010995931,WILMERDING,PA,15148,50200050704,40.399791,-79.816992,NON-POTW,N,9,27113,35,59
RI0100072,110004911926,EAST PROVIDENCE (RUMFORD),RI,02916-3207,10900040901,41.851211,-71.36811,POTW,M,27,59142,10.2,82.6
RI0100293,110000546516,NEWPORT,RI,02840-1037,10900040909,41.513631,-71.317325,POTW,M,3,67102,14.5,84.1
RI0100315,110000760757,PROVIDENCE,RI,02905-5502,10900040901,41.794823,-71.3895,POTW,M,41,45610,25.5,55.1
SD0027481,110010952282,LEAD,SD,57754,101202020207,44.355731,-103.754319,POTW,N,2,47500,16.8,94.3
TN0024210,110000536527,CHATTANOOGA,TN,37405-4403,60200011202,35.048809,-85.337624,POTW,M,8,45527,17.6,62.3
TN0020656,110000726251,CLARKSVILLE,TN,370410387,51302050305,36.538381,-87.371398,POTW,M,2,53604,14.5,65.1
TN0020575,110000566487,"NASHVILLE",TN,37208-2206,51302020305,36.186111,-86.788889,POTW,M,9,59828,15.1,63.5
VA0087068,110010913119,ALEXANDRIA,VA,22314,20700100301,38.80456,-77.04303,POTW,M,4,100939,10.3,62.2
VA0024970,110000912727,LYNCHBURG,VA,24504-3603,20802030305,37.39641,-79.11383,POTW,M,36,46409,19.5,65
VA0063177,110000540424,RICHMOND,VA,23224-2302,20802060101,37.519606,-77.422803,POTW,M,29,47250,23.2,45.5
VT0100153,110024908607,BURLINGTON,VT,05401-5264,41504030704,44.472691,-73.219078,NON-POTW,M,1,51394,26.4,85.3
VT0100196,110000547374,MONTPELIER,VT,05602-4479,41504030402,44.254621,-72.60036,NON-POTW,M,15,65078,7.5,94.3
VT0100285,110008997817,RANDOLPH,VT,5060,10801050202,43.92686,-72.65733,NON-POTW,N,2,61902,11,98.7
VT0100871,110010911291,RUTLAND,VT,5702,41504020109,43.603904,-72.993577,NON-POTW,M,3,48212,12.6,95.4
VT0100374,110002052064,SPRINGFIELD,VT,5156,10801060505,43.2804,-72.46892,NON-POTW,M,21,48134,17,94.3
VT0100579,110010911102,ST. JOHNSBURY,VT,05819-1914,10801020401,44.410639,-72.016572,NON-POTW,M,20,38371,17,96.9
VT0100404,110008204898,VERGENNES,VT,5491,41504020501,44.15,-73.3083,NON-POTW,N,1,63920,11,97.8
VT0100510,110006620022,WINOOSKI,VT,5404,41504030704,44.490788,-73.197733,NON-POTW,M,1,51728,29.5,77.4
WA0020257,110012506216,ANACORTES,WA,98221,171100020600,48.523059,-122.608628,POTW,M,3,71844,8.8,91.7
WA0023744,110054924953,BELLINGHAM,WA,98225,171100040700,48.721667,-122.514444,POTW,M,2,53396,20.8,83.2
WA0029289,110015415914,BREMERTON,WA,98312-4735,171100191000,47.544670000000004,-122.669907,POTW,M,15,52716,16.5,72.3
WA0024490,110016662011,EVERETT,WA,98201,171100110203,47.99138,-122.17888,POTW,M,14,60759,12.8,72.5
WA0024074,110000569484,MOUNT VERNON,WA,98273-6511,171100070203,48.415833,-122.348611,POTW,M,2,62056,14.3,70.3
WA0037061,110005311769,OLYMPIA,WA,98501-6911,171100190503,47.05103,-122.90567,POTW,M,3,59878,15.7,82.1
WA0023973,110054925033,PORT ANGELES,WA,98362-0217,171100200405,48.12086,-123.40221,POTW,M,4,47256,17.4,86.9
WA0031682,110054906143,SEATTLE,WA,98104-2311,171100191200,47.663611,-122.448889,POTW,N,132,92263,11,67.3
WA0029548,110015417770,SNOHOMISH,WA,98290-2994,171100110203,47.915556,-122.112778,POTW,N,2,71800,8.9,88.4
WA0024473,110000562347,SPOKANE,WA,99205-3939,170103070105,47.693416,-117.472387,POTW,M,24,50306,17.3,84.7
WI0036820,110002051421,MILWAUKEE,WI,53204,40400030405,43.030646,-87.91409,POTW,M,117,41838,25.4,44.4
WV0023183,110000877819,BECKLEY,WV,25801,50500040103,37.770949,-81.152877,POTW,M,1,39455,18.9,73.2
WV0029289,110010866198,BELINGTON,WV,26250,50200010407,39.030909,-79.952604,POTW,N,7,32356,28.3,98.7
WV0020648,110010866982,BENWOOD,WV,26031,50301061205,40.031184,-80.729527,POTW,N,13,33333,15.1,93.7
WV0022080,110010866633,BETHANY,WV,26032,50301060105,40.201739,-80.551461,POTW,N,3,62500,3,80.6
WV0025461,110000877766,BRIDGEPORT,WV,26330,50200020402,39.298978,-80.280366,NON-POTW,M,12,84382,4.3,93.9
WV0032336,110000880244,BUCKHANNON,WV,26201,50200010306,39.007876,-80.217584,POTW,M,5,39709,23,89.8
WV0035637,110010865858,CEDAR GROVE,WV,25039,50500060306,38.219882,-81.433486,POTW,N,1,48359,32.8,99.4
WV0023205,110000572773,CHARLESTON,WV,25312-1818,50500080303,38.371996,-81.678148,POTW,M,59,43344,20.9,77.9
WV0023302,110000716397,CLARKSBURG,WV,26301,50200020602,39.306756,-80.351479,POTW,M,55,43518,24.8,92.2
WV0035939,110010865876,DANVILLE,WV,25053,50500090502,38.102778,-81.847222,POTW,N,5,44886,26.7,98
WV0024848,110010866429,DAVIS,WV,26260,50200040202,39.13255,-79.46606,POTW,N,3,45139,16.8,97.3
WV0028118,110005566271,DUNBAR,WV,25064-2237,50500080303,38.36785,-81.7582,POTW,M,17,44009,12.1,78.8
WV0020028,110011745059,ELKINS,WV,26241-3899,50200010405,38.92634,-79.84949,NON-POTW,M,19,38506,19.5,92.1
WV0081434,110010860559,FAIRMONT,WV,26555,50200030305,39.494389,-80.122194,POTW,N,51,43319,23.1,88.9
WV0021865,110010867115,FARMINGTON,WV,26571,50200030103,39.511111,-80.25,NON-POTW,N,1,40208,15.1,97.8
WV0022314,110010866642,FAYETTEVILLE,WV,25840,50500040305,38.06511,-81.102019,POTW,N,2,45313,21.9,98.4
WV0020273,110015656850,FOLLANSBEE,WV,26037-1422,50301011109,40.327239,-80.595849,POTW,M,5,45769,14.1,96.3
WV0084042,110010860078,GASSAWAY,WV,26624,50500070604,38.666799,-80.797022,POTW,N,5,40781,14.9,99.5
WV0021822,110010687159,GRAFTON,WV,26354,50200010707,39.353147,-80.0523,NON-POTW,M,39,36951,23.5,94.6
WV0024589,110000877427,WELCH,WV,24842,NA,37.44299,-81.59746,POTW,M,26,37841,23.7,68.7
WV0024732,110010866376,HINTON,WV,25951,50500040201,37.701508,-80.887866,POTW,N,5,31430,26.5,88.4
WV0023159,110000873680,HUNTINGTON,WV,25701,50901011006,38.3975,-82.448333,POTW,M,25,31162,32.3,85.3
WV0035912,110015776579,KENOVA,WV,25530,50901011007,38.39889,-82.57946,POTW,N,2,34332,25.2,94.2
WV0024392,110000877409,KEYSER,WV,26726-3211,20700020402,39.447987,-78.954647,POTW,M,1,36448,24.3,85.2
WV0021881,110010851630,KINGWOOD,WV,26537,50200040702,39.446784,-79.678084,NON-POTW,N,3,53116,18,96.6
WV0033821,110010865821,LOGAN,WV,25601,50701020102,37.870704,-81.979047,POTW,N,10,34574,22.9,88.1
WV0024473,110010852121,MARLINTON,WV,24954,50500030405,38.224418,-80.093493,POTW,N,1,31607,41.4,97.7
WV0021750,110013694047,MARMET,WV,25315-1900,50500060402,38.23899,-81.559563,NON-POTW,N,3,39500,14.9,97.2
WV0023167,110007872533,MARTINSBURG,WV,25401,20700040907,39.45389,-77.95977,POTW,M,1,42835,29.5,79.9
WV0020141,110010866875,MCMECHEN,WV,26040,50301061206,39.98202,-80.730429,POTW,N,3,41250,15.6,90.1
WV0027324,110010866036,MONONGAH,WV,26554,50200020604,39.462585,-80.216471,POTW,N,2,46429,24.2,87.3
WV0020621,110011899400,MONTGOMERY,WV,25136-2205,50500060306,38.181449,-81.319354,NON-POTW,N,5,23625,37.4,80.5
WV0020150,110010866884,MOOREFIELD,WV,26836,20700010603,39.073441,-78.972807,NON-POTW,N,2,43066,20.3,78
WV0024449,110010866786,MORGANTOWN,WV,26501-9629,50200030308,39.62542,-79.9794,POTW,N,5,42966,32.7,87.9
WV0023264,110017345979,MOUNDSVILLE,WV,26041-2223,50301060802,39.906186,-80.757586,POTW,M,4,34701,20.7,98.3
WV0020681,110010867008,MULLENS,WV,25882,50701010303,37.57828,-81.388677,POTW,N,3,44688,17.3,97.7
WV0027472,110006535455,NEW MARTINSVILLE,WV,26155,50302011005,39.633688,-80.869267,POTW,M,10,43953,21.1,98.3
WV0023299,110039983998,NITRO,WV,25143,50500080304,38.447313,-81.835964,NON-POTW,M,6,41076,16.8,89.5
WV0100901,110010852835,NUTTER FORT,WV,26301-4486,50200020204,39.258825,-80.3231,POTW,N,2,49432,11.2,96.5
WV0022063,110010866615,PARSONS,WV,26287,50200040304,39.096837,-79.681155,NON-POTW,N,5,46875,19.8,94.2
WV0021857,110010867106,PHILIPPI,WV,26416,50200010702,39.161197,-80.040102,POTW,N,13,30966,0.308,89.4
WV0105279,110010853442,PIEDMONT,WV,26750-1000,20700020207,39.48151,-79.04848,POTW,N,7,34737,0.197,55.9
WV0022039,110005566565,POINT PLEASANT,WV,25550-1124,50500080604,38.84245,-82.13768,POTW,N,2,42307,22.4,98.7
WV0023094,110002055150,PRINCETON,WV,24740,50500020802,37.383428,-81.082456,NON-POTW,M,1,42025,24.6,90
WV0022004,110010851649,RICHWOOD,WV,26261-1338,50500050404,38.221504,-80.563142,POTW,N,2,28641,32.7,94.4
WV0084310,110010860167,RIVESVILLE,WV,26588,50200030301,39.529,-80.12383,NON-POTW,N,7,51346,13.9,94.6
WV0023175,110009117776,SAINT ALBANS,WV,25177-1826,50500080303,38.3902,-81.83619,POTW,M,3,50755,17.7,92.2
WV0054500,110010863734,SHINNSTON,WV,26431-1199,50200020602,39.39557,-80.30271,NON-POTW,N,10,56854,9.4,94.1
WV0021741,110010867035,SMITHERS,WV,25186,50500060306,38.180662,-81.310667,POTW,N,3,31000,27.4,88.5
WV0023124,110007871981,STAR CITY,WV,26505,50200030308,39.655637,-79.992008,NON-POTW,M,40,45199,20.7,87.1
WV0024856,110010866438,THOMAS,WV,26292,50200040203,39.145407,-79.502576,NON-POTW,N,1,38750,11.5,99.5
WV0024562,110010866296,WAYNE,WV,25570,50901020304,38.22953,-82.44043,POTW,N,3,21648,31.5,100
WV0026832,110000877506,WELLSBURG,WV,26070-1722,50301061202,40.26507,-80.61563,POTW,M,10,40136,21.8,100
WV0020109,110010866857,WEST UNION,WV,26456,50302010404,39.298694,-80.792883,POTW,N,7,45500,10.5,98.3
WV0028088,110001855591,WESTON,WV,26452,50200020305,39.039917,-80.469566,POTW,M,5,34185,22,97.5
WV0023230,110000551796,WHEELING,WV,26003-2818,50301061205,40.055556,-80.726944,NON-POTW,M,97,44119,13.8,91.1
